{
  "Andaman and Nicobar Islands": {
    "Chowra Island": {
      "id": 1,
      "Name": "Chowra Island",
      "State": "Andaman and Nicobar Islands",
      "District": "Nicobar",
      "Longitude": "93.045",
      "Latitude": "8.455"
    },
    "Kondul Island": {
      "id": 2,
      "Name": "Kondul Island",
      "State": "Andaman and Nicobar Islands",
      "District": "Nicobar",
      "Longitude": "93.715",
      "Latitude": "7.215"
    },
    "Pulomilo": {
      "id": 3,
      "Name": "Pulomilo",
      "State": "Andaman and Nicobar Islands",
      "District": "Nicobar",
      "Longitude": "93.69",
      "Latitude": "7.4"
    },
    "Tillangchong": {
      "id": 4,
      "Name": "Tillangchong",
      "State": "Andaman and Nicobar Islands",
      "District": "Nicobar",
      "Longitude": "93.63",
      "Latitude": "8.50"
    },
    "Trinket Island": {
      "id": 5,
      "Name": "Trinket Island",
      "State": "Andaman and Nicobar Islands",
      "District": "Nicobar",
      "Longitude": "93.58",
      "Latitude": "8.08"
    },
    "Aves Island (Andaman and Nicobar Islands)": {
      "id": 6,
      "Name": "Aves Island (Andaman and Nicobar Islands)",
      "State": "Andaman and Nicobar Islands",
      "District": "North and Middle Andaman",
      "Longitude": "92.935",
      "Latitude": "12.915"
    },
    "Curlew Island (Andaman and Nicobar Islands)": {
      "id": 7,
      "Name": "Curlew Island (Andaman and Nicobar Islands)",
      "State": "Andaman and Nicobar Islands",
      "District": "North and Middle Andaman",
      "Longitude": "92.912",
      "Latitude": "13.003"
    },
    "Diglipur": {
      "id": 8,
      "Name": "Diglipur",
      "State": "Andaman and Nicobar Islands",
      "District": "North and Middle Andaman",
      "Longitude": "93.000",
      "Latitude": "13.267"
    },
    "Interview Island": {
      "id": 9,
      "Name": "Interview Island",
      "State": "Andaman and Nicobar Islands",
      "District": "North and Middle Andaman",
      "Longitude": "92.70",
      "Latitude": "12.88"
    },
    "Long Island (Andaman and Nicobar Islands)": {
      "id": 10,
      "Name": "Long Island (Andaman and Nicobar Islands)",
      "State": "Andaman and Nicobar Islands",
      "District": "North and Middle Andaman",
      "Longitude": "92.93",
      "Latitude": "12.38"
    },
    "Mayabunder": {
      "id": 11,
      "Name": "Mayabunder",
      "State": "Andaman and Nicobar Islands",
      "District": "North and Middle Andaman",
      "Longitude": "92.9333",
      "Latitude": "12.9333"
    },
    "Narcondam Island": {
      "id": 12,
      "Name": "Narcondam Island",
      "State": "Andaman and Nicobar Islands",
      "District": "North and Middle Andaman",
      "Longitude": "94.27",
      "Latitude": "13.45"
    },
    "North Passage Island": {
      "id": 13,
      "Name": "North Passage Island",
      "State": "Andaman and Nicobar Islands",
      "District": "North and Middle Andaman",
      "Longitude": "92.93",
      "Latitude": "12.28"
    },
    "Porlob Island": {
      "id": 14,
      "Name": "Porlob Island",
      "State": "Andaman and Nicobar Islands",
      "District": "North and Middle Andaman",
      "Longitude": "92.86",
      "Latitude": "12.40"
    },
    "Rangat": {
      "id": 15,
      "Name": "Rangat",
      "State": "Andaman and Nicobar Islands",
      "District": "North and Middle Andaman",
      "Longitude": "92.91333",
      "Latitude": "12.50306"
    },
    "Smith Island (Andaman and Nicobar Islands)": {
      "id": 16,
      "Name": "Smith Island (Andaman and Nicobar Islands)",
      "State": "Andaman and Nicobar Islands",
      "District": "North and Middle Andaman",
      "Longitude": "93.05",
      "Latitude": "13.34"
    },
    "Stewart Island (Andaman and Nicobar Islands)": {
      "id": 17,
      "Name": "Stewart Island (Andaman and Nicobar Islands)",
      "State": "Andaman and Nicobar Islands",
      "District": "North and Middle Andaman",
      "Longitude": "92.93",
      "Latitude": "13.01"
    },
    "Strait Island": {
      "id": 18,
      "Name": "Strait Island",
      "State": "Andaman and Nicobar Islands",
      "District": "North and Middle Andaman",
      "Longitude": "92.930",
      "Latitude": "12.215"
    },
    "Bombooflat": {
      "id": 19,
      "Name": "Bombooflat",
      "State": "Andaman and Nicobar Islands",
      "District": "South Andaman",
      "Longitude": "92.717",
      "Latitude": "11.700"
    },
    "Garacharma": {
      "id": 20,
      "Name": "Garacharma",
      "State": "Andaman and Nicobar Islands",
      "District": "South Andaman",
      "Longitude": "92.717",
      "Latitude": "11.617"
    },
    "Havelock Island": {
      "id": 21,
      "Name": "Havelock Island",
      "State": "Andaman and Nicobar Islands",
      "District": "South Andaman",
      "Longitude": "93.00",
      "Latitude": "11.96"
    },
    "Hutbay": {
      "id": 22,
      "Name": "Hutbay",
      "State": "Andaman and Nicobar Islands",
      "District": "South Andaman",
      "Longitude": "92.82055",
      "Latitude": "12.9414"
    },
    "Little Andaman": {
      "id": 23,
      "Name": "Little Andaman",
      "State": "Andaman and Nicobar Islands",
      "District": "South Andaman",
      "Longitude": "92.49",
      "Latitude": "10.65"
    },
    "North Cinque Island": {
      "id": 24,
      "Name": "North Cinque Island",
      "State": "Andaman and Nicobar Islands",
      "District": "South Andaman",
      "Longitude": "92.714",
      "Latitude": "11.314"
    },
    "Port Blair": {
      "id": 25,
      "Name": "Port Blair",
      "State": "Andaman and Nicobar Islands",
      "District": "South Andaman",
      "Longitude": "92.73778",
      "Latitude": "11.66833"
    },
    "Port Cornwallis": {
      "id": 26,
      "Name": "Port Cornwallis",
      "State": "Andaman and Nicobar Islands",
      "District": "South Andaman",
      "Longitude": "93.083",
      "Latitude": "13.283"
    },
    "Tushnabad": {
      "id": 27,
      "Name": "Tushnabad",
      "State": "Andaman and Nicobar Islands",
      "District": "South Andaman",
      "Longitude": "92.64306",
      "Latitude": "11.67444"
    },
    "Viper Island": {
      "id": 28,
      "Name": "Viper Island",
      "State": "Andaman and Nicobar Islands",
      "District": "South Andaman",
      "Longitude": "92.697",
      "Latitude": "11.661"
    }
  },
  "Andhra Pradesh": {
    "Gooty": {
      "id": 29,
      "Name": "Gooty",
      "State": "Andhra Pradesh",
      "District": "Anantapur",
      "Longitude": "77.634",
      "Latitude": "15.121"
    },
    "Hindupur": {
      "id": 30,
      "Name": "Hindupur",
      "State": "Andhra Pradesh",
      "District": "Anantapur",
      "Longitude": "77.4900",
      "Latitude": "13.8300"
    },
    "Kadiri": {
      "id": 31,
      "Name": "Kadiri",
      "State": "Andhra Pradesh",
      "District": "Anantapur",
      "Longitude": "78.17",
      "Latitude": "14.12"
    },
    "Kalyandurg": {
      "id": 32,
      "Name": "Kalyandurg",
      "State": "Andhra Pradesh",
      "District": "Anantapur",
      "Longitude": "77.1000",
      "Latitude": "14.5500"
    },
    "Penukonda": {
      "id": 33,
      "Name": "Penukonda",
      "State": "Andhra Pradesh",
      "District": "Anantapur",
      "Longitude": "77.596",
      "Latitude": "14.085"
    },
    "Puttaparthi": {
      "id": 34,
      "Name": "Puttaparthi",
      "State": "Andhra Pradesh",
      "District": "Anantapur",
      "Longitude": "77.811",
      "Latitude": "14.166"
    },
    "Rayadurg": {
      "id": 35,
      "Name": "Rayadurg",
      "State": "Andhra Pradesh",
      "District": "Anantapur",
      "Longitude": "76.8667",
      "Latitude": "14.7000"
    },
    "Yenumulapalle": {
      "id": 36,
      "Name": "Yenumulapalle",
      "State": "Andhra Pradesh",
      "District": "Anantapur",
      "Longitude": "77.82105",
      "Latitude": "14.16982"
    },
    "Nagari (Andhra Pradesh)": {
      "id": 37,
      "Name": "Nagari (Andhra Pradesh)",
      "State": "Andhra Pradesh",
      "District": "Chittoor",
      "Longitude": "79.5856",
      "Latitude": "13.3214"
    },
    "Palamaner": {
      "id": 38,
      "Name": "Palamaner",
      "State": "Andhra Pradesh",
      "District": "Chittoor",
      "Longitude": "78.7500",
      "Latitude": "13.2000"
    },
    "Punganur": {
      "id": 39,
      "Name": "Punganur",
      "State": "Andhra Pradesh",
      "District": "Chittoor",
      "Longitude": "78.5833",
      "Latitude": "13.3667"
    },
    "Puttur (Andhra Pradesh)": {
      "id": 40,
      "Name": "Puttur (Andhra Pradesh)",
      "State": "Andhra Pradesh",
      "District": "Chittoor",
      "Longitude": "79.55",
      "Latitude": "13.45"
    },
    "Sri City": {
      "id": 41,
      "Name": "Sri City",
      "State": "Andhra Pradesh",
      "District": "Chittoor",
      "Longitude": "80.029489",
      "Latitude": "13.557673"
    },
    "Srikalahasti": {
      "id": 42,
      "Name": "Srikalahasti",
      "State": "Andhra Pradesh",
      "District": "Chittoor",
      "Longitude": "79.70",
      "Latitude": "13.76"
    },
    "Tirumala": {
      "id": 43,
      "Name": "Tirumala",
      "State": "Andhra Pradesh",
      "District": "Chittoor",
      "Longitude": "79.350600",
      "Latitude": "13.680916"
    },
    "Amalapuram": {
      "id": 44,
      "Name": "Amalapuram",
      "State": "Andhra Pradesh",
      "District": "East Godavari",
      "Longitude": "82.0061",
      "Latitude": "16.5787"
    },
    "Anaparti": {
      "id": 45,
      "Name": "Anaparti",
      "State": "Andhra Pradesh",
      "District": "East Godavari",
      "Longitude": "81.9581778",
      "Latitude": "16.9403944"
    },
    "Bridge County": {
      "id": 46,
      "Name": "Bridge County",
      "State": "Andhra Pradesh",
      "District": "East Godavari",
      "Longitude": "82.01275",
      "Latitude": "16.58535"
    },
    "Dindi (East Godavari district)": {
      "id": 47,
      "Name": "Dindi (East Godavari district)",
      "State": "Andhra Pradesh",
      "District": "East Godavari",
      "Longitude": "82.23441",
      "Latitude": "16.95273"
    },
    "Gollaprolu": {
      "id": 48,
      "Name": "Gollaprolu",
      "State": "Andhra Pradesh",
      "District": "East Godavari",
      "Longitude": "82.2847",
      "Latitude": "17.1672"
    },
    "Mandapeta": {
      "id": 49,
      "Name": "Mandapeta",
      "State": "Andhra Pradesh",
      "District": "East Godavari",
      "Longitude": "81.93",
      "Latitude": "16.87"
    },
    "Mummidivaram": {
      "id": 50,
      "Name": "Mummidivaram",
      "State": "Andhra Pradesh",
      "District": "East Godavari",
      "Longitude": "82.1167",
      "Latitude": "16.6500"
    },
    "Peddapuram": {
      "id": 51,
      "Name": "Peddapuram",
      "State": "Andhra Pradesh",
      "District": "East Godavari",
      "Longitude": "82.13",
      "Latitude": "17.08"
    },
    "Pithapuram": {
      "id": 52,
      "Name": "Pithapuram",
      "State": "Andhra Pradesh",
      "District": "East Godavari",
      "Longitude": "82.2667",
      "Latitude": "17.1167"
    },
    "Ramachandrapuram (East Godavari)": {
      "id": 53,
      "Name": "Ramachandrapuram (East Godavari)",
      "State": "Andhra Pradesh",
      "District": "East Godavari",
      "Longitude": "82.02",
      "Latitude": "16.85"
    },
    "Rampachodavaram": {
      "id": 54,
      "Name": "Rampachodavaram",
      "State": "Andhra Pradesh",
      "District": "East Godavari",
      "Longitude": "81.7667",
      "Latitude": "17.4500"
    },
    "Ravulapalem": {
      "id": 55,
      "Name": "Ravulapalem",
      "State": "Andhra Pradesh",
      "District": "East Godavari",
      "Longitude": "81.983",
      "Latitude": "16.483"
    },
    "Samalkota": {
      "id": 56,
      "Name": "Samalkota",
      "State": "Andhra Pradesh",
      "District": "East Godavari",
      "Longitude": "82.1695",
      "Latitude": "17.0531"
    },
    "Tuni": {
      "id": 57,
      "Name": "Tuni",
      "State": "Andhra Pradesh",
      "District": "East Godavari",
      "Longitude": "82.55",
      "Latitude": "17.35"
    },
    "Vemulawada (East Godavari district)": {
      "id": 58,
      "Name": "Vemulawada (East Godavari district)",
      "State": "Andhra Pradesh",
      "District": "East Godavari",
      "Longitude": "82.15297",
      "Latitude": "16.88747"
    },
    "Yeleswaram": {
      "id": 59,
      "Name": "Yeleswaram",
      "State": "Andhra Pradesh",
      "District": "East Godavari",
      "Longitude": "82.1000",
      "Latitude": "17.2833"
    },
    "Bapatla": {
      "id": 60,
      "Name": "Bapatla",
      "State": "Andhra Pradesh",
      "District": "Guntur",
      "Longitude": "80.46750",
      "Latitude": "15.90444"
    },
    "Guntur": {
      "id": 61,
      "Name": "Guntur",
      "State": "Andhra Pradesh",
      "District": "Guntur",
      "Longitude": "80.4428",
      "Latitude": "16.3008"
    },
    "Macherla": {
      "id": 62,
      "Name": "Macherla",
      "State": "Andhra Pradesh",
      "District": "Guntur",
      "Longitude": "79.43",
      "Latitude": "16.48"
    },
    "Mangalagiri": {
      "id": 63,
      "Name": "Mangalagiri",
      "State": "Andhra Pradesh",
      "District": "Guntur",
      "Longitude": "80.55",
      "Latitude": "16.43"
    },
    "Nizampatnam": {
      "id": 64,
      "Name": "Nizampatnam",
      "State": "Andhra Pradesh",
      "District": "Guntur",
      "Longitude": "80.667",
      "Latitude": "15.900"
    },
    "Perecherla": {
      "id": 65,
      "Name": "Perecherla",
      "State": "Andhra Pradesh",
      "District": "Guntur",
      "Longitude": "80.34306",
      "Latitude": "16.32167"
    },
    "Piduguralla": {
      "id": 66,
      "Name": "Piduguralla",
      "State": "Andhra Pradesh",
      "District": "Guntur",
      "Longitude": "79.900",
      "Latitude": "16.483"
    },
    "Ponnur": {
      "id": 67,
      "Name": "Ponnur",
      "State": "Andhra Pradesh",
      "District": "Guntur",
      "Longitude": "80.5667",
      "Latitude": "16.0667"
    },
    "Repalle": {
      "id": 68,
      "Name": "Repalle",
      "State": "Andhra Pradesh",
      "District": "Guntur",
      "Longitude": "80.82944",
      "Latitude": "16.01722"
    },
    "Sattenapalle": {
      "id": 69,
      "Name": "Sattenapalle",
      "State": "Andhra Pradesh",
      "District": "Guntur",
      "Longitude": "80.149677",
      "Latitude": "16.396167"
    },
    "Tadepalle (Guntur district)": {
      "id": 70,
      "Name": "Tadepalle (Guntur district)",
      "State": "Andhra Pradesh",
      "District": "Guntur",
      "Longitude": "80.61861",
      "Latitude": "16.48028"
    },
    "Vinukonda": {
      "id": 71,
      "Name": "Vinukonda",
      "State": "Andhra Pradesh",
      "District": "Guntur",
      "Longitude": "79.75",
      "Latitude": "16.05"
    },
    "Badvel": {
      "id": 72,
      "Name": "Badvel",
      "State": "Andhra Pradesh",
      "District": "Kadapa",
      "Longitude": "79.05",
      "Latitude": "14.75"
    },
    "Duvvuru narayanapalli": {
      "id": 73,
      "Name": "Duvvuru narayanapalli",
      "State": "Andhra Pradesh",
      "District": "Kadapa",
      "Longitude": "78.62805",
      "Latitude": "14.91107"
    },
    "Jammalamadugu": {
      "id": 74,
      "Name": "Jammalamadugu",
      "State": "Andhra Pradesh",
      "District": "Kadapa",
      "Longitude": "78.38",
      "Latitude": "14.85"
    },
    "Mydukur": {
      "id": 75,
      "Name": "Mydukur",
      "State": "Andhra Pradesh",
      "District": "Kadapa",
      "Longitude": "78.780",
      "Latitude": "14.700"
    },
    "Pulivendula": {
      "id": 76,
      "Name": "Pulivendula",
      "State": "Andhra Pradesh",
      "District": "Kadapa",
      "Longitude": "78.22500",
      "Latitude": "14.41944"
    },
    "Railway Koduru": {
      "id": 77,
      "Name": "Railway Koduru",
      "State": "Andhra Pradesh",
      "District": "Kadapa",
      "Longitude": "79.3506",
      "Latitude": "13.9569"
    },
    "Rayachoti": {
      "id": 78,
      "Name": "Rayachoti",
      "State": "Andhra Pradesh",
      "District": "Kadapa",
      "Longitude": "78.75167",
      "Latitude": "14.05833"
    },
    "Yerraguntla": {
      "id": 79,
      "Name": "Yerraguntla",
      "State": "Andhra Pradesh",
      "District": "Kadapa",
      "Longitude": "78.5333",
      "Latitude": "14.6333"
    },
    "Vijayawada": {
      "id": 80,
      "Name": "Vijayawada",
      "State": "Andhra Pradesh",
      "District": "Krishna",
      "Longitude": "80.6305",
      "Latitude": "16.5193"
    },
    "Gannavaram": {
      "id": 81,
      "Name": "Gannavaram",
      "State": "Andhra Pradesh",
      "District": "Krishna",
      "Longitude": "80.8000",
      "Latitude": "16.5333"
    },
    "Hanuman Junction": {
      "id": 82,
      "Name": "Hanuman Junction",
      "State": "Andhra Pradesh",
      "District": "Krishna",
      "Longitude": "80.97",
      "Latitude": "16.63"
    },
    "Jaggayyapeta": {
      "id": 83,
      "Name": "Jaggayyapeta",
      "State": "Andhra Pradesh",
      "District": "Krishna",
      "Longitude": "80.0976",
      "Latitude": "16.8920"
    },
    "Kondapalli": {
      "id": 84,
      "Name": "Kondapalli",
      "State": "Andhra Pradesh",
      "District": "Krishna",
      "Longitude": "80.54111",
      "Latitude": "16.61833"
    },
    "Mylavaram": {
      "id": 85,
      "Name": "Mylavaram",
      "State": "Andhra Pradesh",
      "District": "Krishna",
      "Longitude": "80.6333",
      "Latitude": "16.7833"
    },
    "Nandigama": {
      "id": 86,
      "Name": "Nandigama",
      "State": "Andhra Pradesh",
      "District": "Krishna",
      "Longitude": "80.3000",
      "Latitude": "16.7833"
    },
    "Nuzvid": {
      "id": 87,
      "Name": "Nuzvid",
      "State": "Andhra Pradesh",
      "District": "Krishna",
      "Longitude": "80.8465",
      "Latitude": "16.7881"
    },
    "Pedana": {
      "id": 88,
      "Name": "Pedana",
      "State": "Andhra Pradesh",
      "District": "Krishna",
      "Longitude": "81.1667",
      "Latitude": "16.2667"
    },
    "Tiruvuru": {
      "id": 89,
      "Name": "Tiruvuru",
      "State": "Andhra Pradesh",
      "District": "Krishna",
      "Longitude": "80.600",
      "Latitude": "17.100"
    },
    "Vuyyuru": {
      "id": 90,
      "Name": "Vuyyuru",
      "State": "Andhra Pradesh",
      "District": "Krishna",
      "Longitude": "80.85000",
      "Latitude": "16.36667"
    },
    "Allagadda": {
      "id": 91,
      "Name": "Allagadda",
      "State": "Andhra Pradesh",
      "District": "Kurnool",
      "Longitude": "78.4975",
      "Latitude": "15.1336"
    },
    "Atmakur (Kurnool district)": {
      "id": 92,
      "Name": "Atmakur (Kurnool district)",
      "State": "Andhra Pradesh",
      "District": "Kurnool",
      "Longitude": "78.58842",
      "Latitude": "15.87791"
    },
    "Banganapalle": {
      "id": 93,
      "Name": "Banganapalle",
      "State": "Andhra Pradesh",
      "District": "Kurnool",
      "Longitude": "78.2333",
      "Latitude": "15.3167"
    },
    "Bethamcherla": {
      "id": 94,
      "Name": "Bethamcherla",
      "State": "Andhra Pradesh",
      "District": "Kurnool",
      "Longitude": "78.1667",
      "Latitude": "15.4667"
    },
    "Bugganipalle": {
      "id": 95,
      "Name": "Bugganipalle",
      "State": "Andhra Pradesh",
      "District": "Kurnool",
      "Longitude": "78.17583",
      "Latitude": "15.47389"
    },
    "Dhone": {
      "id": 96,
      "Name": "Dhone",
      "State": "Andhra Pradesh",
      "District": "Kurnool",
      "Longitude": "77.872",
      "Latitude": "15.396"
    },
    "Gudur (Kurnool)": {
      "id": 97,
      "Name": "Gudur (Kurnool)",
      "State": "Andhra Pradesh",
      "District": "Kurnool",
      "Longitude": "77.807",
      "Latitude": "15.775"
    },
    "Mantralayam": {
      "id": 98,
      "Name": "Mantralayam",
      "State": "Andhra Pradesh",
      "District": "Kurnool",
      "Longitude": "77.42806",
      "Latitude": "15.94167"
    },
    "Nandikotkur": {
      "id": 99,
      "Name": "Nandikotkur",
      "State": "Andhra Pradesh",
      "District": "Kurnool",
      "Longitude": "78.2667",
      "Latitude": "15.8667"
    },
    "Pedda Chintakunta": {
      "id": 100,
      "Name": "Pedda Chintakunta",
      "State": "Andhra Pradesh",
      "District": "Kurnool",
      "Longitude": "78.469",
      "Latitude": "15.127"
    },
    "Srisailam": {
      "id": 101,
      "Name": "Srisailam",
      "State": "Andhra Pradesh",
      "District": "Kurnool",
      "Longitude": "78.8667",
      "Latitude": "16.0833"
    },
    "Yemmiganur": {
      "id": 102,
      "Name": "Yemmiganur",
      "State": "Andhra Pradesh",
      "District": "Kurnool",
      "Longitude": "77.4833",
      "Latitude": "15.7333"
    },
    "Allur (Nellore district)": {
      "id": 103,
      "Name": "Allur (Nellore district)",
      "State": "Andhra Pradesh",
      "District": "Nellore",
      "Longitude": "80.06",
      "Latitude": "14.68"
    },
    "Atmakur (Nellore District)": {
      "id": 104,
      "Name": "Atmakur (Nellore District)",
      "State": "Andhra Pradesh",
      "District": "Nellore",
      "Longitude": "79.6167",
      "Latitude": "14.6167"
    },
    "Buchireddypalem": {
      "id": 105,
      "Name": "Buchireddypalem",
      "State": "Andhra Pradesh",
      "District": "Nellore",
      "Longitude": "79.881191",
      "Latitude": "14.537394"
    },
    "Gudur": {
      "id": 106,
      "Name": "Gudur",
      "State": "Andhra Pradesh",
      "District": "Nellore",
      "Longitude": "79.84771",
      "Latitude": "14.14733"
    },
    "Kavali": {
      "id": 107,
      "Name": "Kavali",
      "State": "Andhra Pradesh",
      "District": "Nellore",
      "Longitude": "79.992921",
      "Latitude": "14.913001"
    },
    "Kovur (Nellore district)": {
      "id": 108,
      "Name": "Kovur (Nellore district)",
      "State": "Andhra Pradesh",
      "District": "Nellore",
      "Longitude": "79.9859",
      "Latitude": "14.5001"
    },
    "Krishnapatnam": {
      "id": 109,
      "Name": "Krishnapatnam",
      "State": "Andhra Pradesh",
      "District": "Nellore",
      "Longitude": "80.117",
      "Latitude": "14.283"
    },
    "Naidupeta": {
      "id": 110,
      "Name": "Naidupeta",
      "State": "Andhra Pradesh",
      "District": "Nellore",
      "Longitude": "79.9000",
      "Latitude": "13.9000"
    },
    "Nellore": {
      "id": 111,
      "Name": "Nellore",
      "State": "Andhra Pradesh",
      "District": "Nellore",
      "Longitude": "79.99",
      "Latitude": "14.45"
    },
    "Rapur": {
      "id": 112,
      "Name": "Rapur",
      "State": "Andhra Pradesh",
      "District": "Nellore",
      "Longitude": "79.5351",
      "Latitude": "14.2015"
    },
    "Sullurpeta": {
      "id": 113,
      "Name": "Sullurpeta",
      "State": "Andhra Pradesh",
      "District": "Nellore",
      "Longitude": "80.018",
      "Latitude": "13.700"
    },
    "Udayagiri (Nellore district)": {
      "id": 114,
      "Name": "Udayagiri (Nellore district)",
      "State": "Andhra Pradesh",
      "District": "Nellore",
      "Longitude": "79.3167",
      "Latitude": "14.8667"
    },
    "Venkatagiri": {
      "id": 115,
      "Name": "Venkatagiri",
      "State": "Andhra Pradesh",
      "District": "Nellore",
      "Longitude": "79.5833",
      "Latitude": "13.9667"
    },
    "Amudalavalasa": {
      "id": 116,
      "Name": "Amudalavalasa",
      "State": "Andhra Pradesh",
      "District": "Srikakulam",
      "Longitude": "83.9000",
      "Latitude": "18.4167"
    },
    "Ichchapuram": {
      "id": 117,
      "Name": "Ichchapuram",
      "State": "Andhra Pradesh",
      "District": "Srikakulam",
      "Longitude": "84.7",
      "Latitude": "19.12"
    },
    "Kasibugga": {
      "id": 118,
      "Name": "Kasibugga",
      "State": "Andhra Pradesh",
      "District": "Srikakulam",
      "Longitude": "84.424130",
      "Latitude": "18.764006"
    },
    "Narasannapeta": {
      "id": 119,
      "Name": "Narasannapeta",
      "State": "Andhra Pradesh",
      "District": "Srikakulam",
      "Longitude": "84.0500",
      "Latitude": "18.4167"
    },
    "Palakonda": {
      "id": 120,
      "Name": "Palakonda",
      "State": "Andhra Pradesh",
      "District": "Srikakulam",
      "Longitude": "83.7500",
      "Latitude": "18.6000"
    },
    "Palasa": {
      "id": 121,
      "Name": "Palasa",
      "State": "Andhra Pradesh",
      "District": "Srikakulam",
      "Longitude": "84.407830",
      "Latitude": "18.773095"
    },
    "Pathapatnam": {
      "id": 122,
      "Name": "Pathapatnam",
      "State": "Andhra Pradesh",
      "District": "Srikakulam",
      "Longitude": "84.0833",
      "Latitude": "18.7500"
    },
    "Rajam (Andhra Pradesh)": {
      "id": 123,
      "Name": "Rajam (Andhra Pradesh)",
      "State": "Andhra Pradesh",
      "District": "Srikakulam",
      "Longitude": "83.661733",
      "Latitude": "18.447858"
    },
    "Srikakulam": {
      "id": 124,
      "Name": "Srikakulam",
      "State": "Andhra Pradesh",
      "District": "Srikakulam",
      "Longitude": "83.9",
      "Latitude": "18.3"
    },
    "Tekkali": {
      "id": 125,
      "Name": "Tekkali",
      "State": "Andhra Pradesh",
      "District": "Srikakulam",
      "Longitude": "84.2333",
      "Latitude": "18.6167"
    },
    "Arilova": {
      "id": 126,
      "Name": "Arilova",
      "State": "Andhra Pradesh",
      "District": "Visakhapatnam",
      "Longitude": "83.310008",
      "Latitude": "17.767921"
    },
    "Tagarapuvalasa": {
      "id": 127,
      "Name": "Tagarapuvalasa",
      "State": "Andhra Pradesh",
      "District": "Visakhapatnam",
      "Longitude": "83.42889",
      "Latitude": "17.93111"
    },
    "Vepagunta": {
      "id": 128,
      "Name": "Vepagunta",
      "State": "Andhra Pradesh",
      "District": "Visakhapatnam",
      "Longitude": "83.213925",
      "Latitude": "17.77987"
    },
    "Bobbili": {
      "id": 129,
      "Name": "Bobbili",
      "State": "Andhra Pradesh",
      "District": "Vizianagaram",
      "Longitude": "83.3667",
      "Latitude": "18.5667"
    },
    "Parvathipuram (Andhra Pradesh)": {
      "id": 130,
      "Name": "Parvathipuram (Andhra Pradesh)",
      "State": "Andhra Pradesh",
      "District": "Vizianagaram",
      "Longitude": "83.425",
      "Latitude": "18.78"
    },
    "Salur": {
      "id": 131,
      "Name": "Salur",
      "State": "Andhra Pradesh",
      "District": "Vizianagaram",
      "Longitude": "83.2167",
      "Latitude": "18.5333"
    },
    "Srungavarapukota": {
      "id": 132,
      "Name": "Srungavarapukota",
      "State": "Andhra Pradesh",
      "District": "Vizianagaram",
      "Longitude": "83.1667",
      "Latitude": "18.1167"
    },
    "Vizianagaram": {
      "id": 133,
      "Name": "Vizianagaram",
      "State": "Andhra Pradesh",
      "District": "Vizianagaram",
      "Longitude": "83.42",
      "Latitude": "18.12"
    },
    "Jangareddygudem": {
      "id": 134,
      "Name": "Jangareddygudem",
      "State": "Andhra Pradesh",
      "District": "West Godavari",
      "Longitude": "81.3000",
      "Latitude": "17.1167"
    },
    "Kovvur": {
      "id": 135,
      "Name": "Kovvur",
      "State": "Andhra Pradesh",
      "District": "West Godavari",
      "Longitude": "81.731",
      "Latitude": "17.017"
    },
    "Narasapuram": {
      "id": 136,
      "Name": "Narasapuram",
      "State": "Andhra Pradesh",
      "District": "West Godavari",
      "Longitude": "81.7016",
      "Latitude": "16.4361"
    },
    "Nidadavolu": {
      "id": 137,
      "Name": "Nidadavolu",
      "State": "Andhra Pradesh",
      "District": "West Godavari",
      "Longitude": "81.67",
      "Latitude": "16.92"
    },
    "Penugonda": {
      "id": 138,
      "Name": "Penugonda",
      "State": "Andhra Pradesh",
      "District": "West Godavari",
      "Longitude": "81.7445",
      "Latitude": "16.6547"
    },
    "Tanuku": {
      "id": 139,
      "Name": "Tanuku",
      "State": "Andhra Pradesh",
      "District": "West Godavari",
      "Longitude": "81.7",
      "Latitude": "16.75"
    },
    "Vijjeswaram": {
      "id": 140,
      "Name": "Vijjeswaram",
      "State": "Andhra Pradesh",
      "District": "West Godavari",
      "Longitude": "81.733",
      "Latitude": "16.933"
    },
    "West Godavari district": {
      "id": 141,
      "Name": "West Godavari district",
      "State": "Andhra Pradesh",
      "District": "West Godavari",
      "Longitude": "81.017",
      "Latitude": "16.117"
    }
  },
  "Arunachal Pradesh": {
    "Hawai (Arunachal Pradesh)": {
      "id": 142,
      "Name": "Hawai (Arunachal Pradesh)",
      "State": "Arunachal Pradesh",
      "District": "Anjaw",
      "Longitude": "96.81028",
      "Latitude": "27.88528"
    },
    "Walong": {
      "id": 143,
      "Name": "Walong",
      "State": "Arunachal Pradesh",
      "District": "Anjaw",
      "Longitude": "97.017",
      "Latitude": "28.133"
    },
    "Bordumsa": {
      "id": 144,
      "Name": "Bordumsa",
      "State": "Arunachal Pradesh",
      "District": "Changlang",
      "Longitude": "95.88833",
      "Latitude": "27.51944"
    },
    "Changlang": {
      "id": 145,
      "Name": "Changlang",
      "State": "Arunachal Pradesh",
      "District": "Changlang",
      "Longitude": "95.71",
      "Latitude": "27.12"
    },
    "Diyun": {
      "id": 146,
      "Name": "Diyun",
      "State": "Arunachal Pradesh",
      "District": "Changlang",
      "Longitude": "96.9",
      "Latitude": "27.55"
    },
    "Jairampur": {
      "id": 147,
      "Name": "Jairampur",
      "State": "Arunachal Pradesh",
      "District": "Changlang",
      "Longitude": "96.01583",
      "Latitude": "27.35111"
    },
    "Kharsang": {
      "id": 148,
      "Name": "Kharsang",
      "State": "Arunachal Pradesh",
      "District": "Changlang",
      "Longitude": "95.90",
      "Latitude": "27.32"
    },
    "Kumki (Arunachal Pradesh)": {
      "id": 149,
      "Name": "Kumki (Arunachal Pradesh)",
      "State": "Arunachal Pradesh",
      "District": "Changlang",
      "Longitude": "96.9",
      "Latitude": "27.266"
    },
    "Miao (Arunachal Pradesh)": {
      "id": 150,
      "Name": "Miao (Arunachal Pradesh)",
      "State": "Arunachal Pradesh",
      "District": "Changlang",
      "Longitude": "96.20",
      "Latitude": "27.49"
    },
    "Nampong": {
      "id": 151,
      "Name": "Nampong",
      "State": "Arunachal Pradesh",
      "District": "Changlang",
      "Longitude": "96.13",
      "Latitude": "27.28"
    },
    "Anini": {
      "id": 152,
      "Name": "Anini",
      "State": "Arunachal Pradesh",
      "District": "Dibang Valley",
      "Longitude": "95.90361",
      "Latitude": "28.79806"
    },
    "Mayodia Pass": {
      "id": 153,
      "Name": "Mayodia Pass",
      "State": "Arunachal Pradesh",
      "District": "Dibang Valley",
      "Longitude": "95.91000",
      "Latitude": "28.23361"
    },
    "Seppa": {
      "id": 154,
      "Name": "Seppa",
      "State": "Arunachal Pradesh",
      "District": "East Kameng",
      "Longitude": "93.04556",
      "Latitude": "27.35000"
    },
    "Pasighat": {
      "id": 155,
      "Name": "Pasighat",
      "State": "Arunachal Pradesh",
      "District": "East Siang",
      "Longitude": "95.33",
      "Latitude": "28.07"
    },
    "Ruksin": {
      "id": 156,
      "Name": "Ruksin",
      "State": "Arunachal Pradesh",
      "District": "East Siang",
      "Longitude": "95.22333",
      "Latitude": "27.84361"
    },
    "Jamin (Arunachal Pradesh)": {
      "id": 157,
      "Name": "Jamin (Arunachal Pradesh)",
      "State": "Arunachal Pradesh",
      "District": "Kra Daadi",
      "Longitude": "93.57578",
      "Latitude": "27.7949"
    },
    "Palin (Arunachal Pradesh)": {
      "id": 158,
      "Name": "Palin (Arunachal Pradesh)",
      "State": "Arunachal Pradesh",
      "District": "Kra Daadi",
      "Longitude": "93.632",
      "Latitude": "27.694"
    },
    "Koloriang": {
      "id": 159,
      "Name": "Koloriang",
      "State": "Arunachal Pradesh",
      "District": "Kurung Kumey",
      "Longitude": "93.350",
      "Latitude": "27.917"
    },
    "New Palin": {
      "id": 160,
      "Name": "New Palin",
      "State": "Arunachal Pradesh",
      "District": "Kurung Kumey",
      "Longitude": "93.69101",
      "Latitude": "27.70389"
    },
    "Parshuram Kund": {
      "id": 161,
      "Name": "Parshuram Kund",
      "State": "Arunachal Pradesh",
      "District": "Lohit",
      "Longitude": "96.35917",
      "Latitude": "27.87750"
    },
    "Tezu": {
      "id": 162,
      "Name": "Tezu",
      "State": "Arunachal Pradesh",
      "District": "Lohit",
      "Longitude": "96.17",
      "Latitude": "27.92"
    },
    "Longding": {
      "id": 163,
      "Name": "Longding",
      "State": "Arunachal Pradesh",
      "District": "Longding",
      "Longitude": "95.3214",
      "Latitude": "26.88892"
    },
    "Roing": {
      "id": 164,
      "Name": "Roing",
      "State": "Arunachal Pradesh",
      "District": "Lower Dibang Valley",
      "Longitude": "95.84278",
      "Latitude": "28.14278"
    },
    "Likabali": {
      "id": 165,
      "Name": "Likabali",
      "State": "Arunachal Pradesh",
      "District": "Lower Siang",
      "Longitude": "94.67236",
      "Latitude": "27.70494"
    },
    "Yazali (Arunachal Pradesh)": {
      "id": 166,
      "Name": "Yazali (Arunachal Pradesh)",
      "State": "Arunachal Pradesh",
      "District": "Lower Subansiri",
      "Longitude": "93.74721",
      "Latitude": "27.40486"
    },
    "Ziro": {
      "id": 167,
      "Name": "Ziro",
      "State": "Arunachal Pradesh",
      "District": "Lower Subansiri",
      "Longitude": "93.83",
      "Latitude": "27.63"
    },
    "Namsai (Arunachal Pradesh)": {
      "id": 168,
      "Name": "Namsai (Arunachal Pradesh)",
      "State": "Arunachal Pradesh",
      "District": "Namsai",
      "Longitude": "95.87135",
      "Latitude": "27.66894"
    },
    "Itanagar": {
      "id": 169,
      "Name": "Itanagar",
      "State": "Arunachal Pradesh",
      "District": "Papum Pare",
      "Longitude": "93.62000",
      "Latitude": "27.10000"
    },
    "Kimin": {
      "id": 170,
      "Name": "Kimin",
      "State": "Arunachal Pradesh",
      "District": "Papum Pare",
      "Longitude": "93.968778",
      "Latitude": "27.304528"
    },
    "Naharlagun": {
      "id": 171,
      "Name": "Naharlagun",
      "State": "Arunachal Pradesh",
      "District": "Papum Pare",
      "Longitude": "93.700848",
      "Latitude": "27.103029"
    },
    "Nirjuli": {
      "id": 172,
      "Name": "Nirjuli",
      "State": "Arunachal Pradesh",
      "District": "Papum Pare",
      "Longitude": "93.74",
      "Latitude": "27.13"
    },
    "Yupia": {
      "id": 173,
      "Name": "Yupia",
      "State": "Arunachal Pradesh",
      "District": "Papum Pare",
      "Longitude": "93.7431",
      "Latitude": "27.1692"
    },
    "Mechuka": {
      "id": 174,
      "Name": "Mechuka",
      "State": "Arunachal Pradesh",
      "District": "Shi Yomi",
      "Longitude": "94.12806",
      "Latitude": "28.60500"
    },
    "Pangin": {
      "id": 175,
      "Name": "Pangin",
      "State": "Arunachal Pradesh",
      "District": "Siang",
      "Longitude": "95.276",
      "Latitude": "28.14"
    },
    "Deomali": {
      "id": 176,
      "Name": "Deomali",
      "State": "Arunachal Pradesh",
      "District": "Tirap",
      "Longitude": "95.47816",
      "Latitude": "27.15857"
    },
    "Khonsa": {
      "id": 177,
      "Name": "Khonsa",
      "State": "Arunachal Pradesh",
      "District": "Tirap",
      "Longitude": "95.57",
      "Latitude": "27.02"
    },
    "Tuting": {
      "id": 178,
      "Name": "Tuting",
      "State": "Arunachal Pradesh",
      "District": "Upper Siang",
      "Longitude": "94.894697",
      "Latitude": "28.992185"
    },
    "Yingkiong": {
      "id": 179,
      "Name": "Yingkiong",
      "State": "Arunachal Pradesh",
      "District": "Upper Siang",
      "Longitude": "95.047531",
      "Latitude": "28.61037"
    },
    "Daporijo": {
      "id": 180,
      "Name": "Daporijo",
      "State": "Arunachal Pradesh",
      "District": "Upper Subansiri",
      "Longitude": "94.22083",
      "Latitude": "27.98611"
    },
    "Basar (Arunachal Pradesh)": {
      "id": 181,
      "Name": "Basar (Arunachal Pradesh)",
      "State": "Arunachal Pradesh",
      "District": "Lepa Rada",
      "Longitude": "94.66667",
      "Latitude": "27.98333"
    },
    "Bhalukpong": {
      "id": 182,
      "Name": "Bhalukpong",
      "State": "Arunachal Pradesh",
      "District": "West Kameng",
      "Longitude": "92.646",
      "Latitude": "27.011"
    },
    "Bomdila": {
      "id": 183,
      "Name": "Bomdila",
      "State": "Arunachal Pradesh",
      "District": "West Kameng",
      "Longitude": "92.4",
      "Latitude": "27.25"
    },
    "Aalo": {
      "id": 184,
      "Name": "Aalo",
      "State": "Arunachal Pradesh",
      "District": "West Siang",
      "Longitude": "94.77",
      "Latitude": "28.17"
    }
  },
  "Assam": {
    "Patacharkuchi": {
      "id": 185,
      "Name": "Patacharkuchi",
      "State": "Assam",
      "District": "Bajali",
      "Longitude": "91.26667",
      "Latitude": "26.51667"
    },
    "Pathsala": {
      "id": 186,
      "Name": "Pathsala",
      "State": "Assam",
      "District": "Bajali",
      "Longitude": "91.179271",
      "Latitude": "26.499382"
    },
    "Sarthebari": {
      "id": 187,
      "Name": "Sarthebari",
      "State": "Assam",
      "District": "Bajali",
      "Longitude": "91.22",
      "Latitude": "26.35"
    },
    "Goreswar": {
      "id": 188,
      "Name": "Goreswar",
      "State": "Assam",
      "District": "Baksa",
      "Longitude": "91.73",
      "Latitude": "26.54"
    },
    "Mushalpur": {
      "id": 189,
      "Name": "Mushalpur",
      "State": "Assam",
      "District": "Baksa",
      "Longitude": "91.4261",
      "Latitude": "26.5792"
    },
    "Barpeta": {
      "id": 190,
      "Name": "Barpeta",
      "State": "Assam",
      "District": "Barpeta",
      "Longitude": "91.0",
      "Latitude": "26.32"
    },
    "Barpeta Road": {
      "id": 191,
      "Name": "Barpeta Road",
      "State": "Assam",
      "District": "Barpeta",
      "Longitude": "90.97",
      "Latitude": "26.50"
    },
    "Bohari": {
      "id": 192,
      "Name": "Bohari",
      "State": "Assam",
      "District": "Barpeta",
      "Longitude": "91.13806",
      "Latitude": "26.25472"
    },
    "Dumuria": {
      "id": 193,
      "Name": "Dumuria",
      "State": "Assam",
      "District": "Barpeta",
      "Longitude": "91.1497879",
      "Latitude": "26.495771"
    },
    "Howly": {
      "id": 194,
      "Name": "Howly",
      "State": "Assam",
      "District": "Barpeta",
      "Longitude": "90.97",
      "Latitude": "26.43"
    },
    "Kalgachia": {
      "id": 195,
      "Name": "Kalgachia",
      "State": "Assam",
      "District": "Barpeta",
      "Longitude": "91.86",
      "Latitude": "26.36"
    },
    "Sarbhog": {
      "id": 196,
      "Name": "Sarbhog",
      "State": "Assam",
      "District": "Barpeta",
      "Longitude": "90.888",
      "Latitude": "26.491"
    },
    "Sarupeta": {
      "id": 197,
      "Name": "Sarupeta",
      "State": "Assam",
      "District": "Barpeta",
      "Longitude": "91.07",
      "Latitude": "26.49"
    },
    "Biswanath Chariali": {
      "id": 198,
      "Name": "Biswanath Chariali",
      "State": "Assam",
      "District": "Biswanath",
      "Longitude": "93.14831",
      "Latitude": "26.73366"
    },
    "Gohpur": {
      "id": 199,
      "Name": "Gohpur",
      "State": "Assam",
      "District": "Biswanath",
      "Longitude": "93.63",
      "Latitude": "26.88"
    },
    "Abhayapuri": {
      "id": 200,
      "Name": "Abhayapuri",
      "State": "Assam",
      "District": "Bongaigaon",
      "Longitude": "90.87",
      "Latitude": "26.33"
    },
    "Bongaigaon": {
      "id": 201,
      "Name": "Bongaigaon",
      "State": "Assam",
      "District": "Bongaigaon",
      "Longitude": "90.53",
      "Latitude": "26.49"
    },
    "Bongaigaon Refinery Township": {
      "id": 202,
      "Name": "Bongaigaon Refinery Township",
      "State": "Assam",
      "District": "Bongaigaon",
      "Longitude": "90.520827",
      "Latitude": "26.505493"
    },
    "Dhaligaon": {
      "id": 203,
      "Name": "Dhaligaon",
      "State": "Assam",
      "District": "Bongaigaon",
      "Longitude": "90.522169",
      "Latitude": "26.496866"
    },
    "Jogighopa": {
      "id": 204,
      "Name": "Jogighopa",
      "State": "Assam",
      "District": "Bongaigaon",
      "Longitude": "90.58",
      "Latitude": "26.23"
    },
    "Manikpur (Assam)": {
      "id": 205,
      "Name": "Manikpur (Assam)",
      "State": "Assam",
      "District": "Bongaigaon",
      "Longitude": "90.803527",
      "Latitude": "26.463378"
    },
    "New Bongaigaon": {
      "id": 206,
      "Name": "New Bongaigaon",
      "State": "Assam",
      "District": "Bongaigaon",
      "Longitude": "90.561",
      "Latitude": "26.478"
    },
    "New Bongaigaon Railway Colony": {
      "id": 207,
      "Name": "New Bongaigaon Railway Colony",
      "State": "Assam",
      "District": "Bongaigaon",
      "Longitude": "90.5667",
      "Latitude": "26.4667"
    },
    "North Salmara": {
      "id": 208,
      "Name": "North Salmara",
      "State": "Assam",
      "District": "Bongaigaon",
      "Longitude": "90.60000",
      "Latitude": "26.36667"
    },
    "Ambikapur Part-X": {
      "id": 209,
      "Name": "Ambikapur Part-X",
      "State": "Assam",
      "District": "Cachar",
      "Longitude": "92.8",
      "Latitude": "24.8167"
    },
    "Durga Nagar Part-V": {
      "id": 210,
      "Name": "Durga Nagar Part-V",
      "State": "Assam",
      "District": "Cachar",
      "Longitude": "92.87778",
      "Latitude": "24.88444"
    },
    "Hailakandi": {
      "id": 211,
      "Name": "Hailakandi",
      "State": "Assam",
      "District": "Hailakandi",
      "Longitude": "92.57",
      "Latitude": "24.68"
    },
    "Kalain": {
      "id": 212,
      "Name": "Kalain",
      "State": "Assam",
      "District": "Cachar",
      "Longitude": "92.572",
      "Latitude": "24.968"
    },
    "Kanakpur Part-II": {
      "id": 213,
      "Name": "Kanakpur Part-II",
      "State": "Assam",
      "District": "Cachar",
      "Longitude": "92.80750",
      "Latitude": "24.81028"
    },
    "Lakhipur": {
      "id": 214,
      "Name": "Lakhipur",
      "State": "Assam",
      "District": "Cachar",
      "Longitude": "93.02",
      "Latitude": "24.8"
    },
    "Silchar": {
      "id": 215,
      "Name": "Silchar",
      "State": "Assam",
      "District": "Cachar",
      "Longitude": "92.8",
      "Latitude": "24.82"
    },
    "Silchar Part-X": {
      "id": 216,
      "Name": "Silchar Part-X",
      "State": "Assam",
      "District": "Cachar",
      "Longitude": "92.8",
      "Latitude": "24.8167"
    },
    "Sonabarighat": {
      "id": 217,
      "Name": "Sonabarighat",
      "State": "Assam",
      "District": "Cachar",
      "Longitude": "92.834",
      "Latitude": "24.756"
    },
    "Sonai": {
      "id": 218,
      "Name": "Sonai",
      "State": "Assam",
      "District": "Cachar",
      "Longitude": "92.8888912",
      "Latitude": "24.7326006"
    },
    "Udharbond": {
      "id": 219,
      "Name": "Udharbond",
      "State": "Assam",
      "District": "Cachar",
      "Longitude": "92.869449000",
      "Latitude": "24.869773000"
    },
    "Uttar Krishnapur Part-I": {
      "id": 220,
      "Name": "Uttar Krishnapur Part-I",
      "State": "Assam",
      "District": "Cachar",
      "Longitude": "92.79972",
      "Latitude": "24.78222"
    },
    "Charaideo": {
      "id": 221,
      "Name": "Charaideo",
      "State": "Assam",
      "District": "Charaideo",
      "Longitude": "94.7481",
      "Latitude": "26.933"
    },
    "Sonari": {
      "id": 222,
      "Name": "Sonari",
      "State": "Assam",
      "District": "Charaideo",
      "Longitude": "95.03",
      "Latitude": "27.07"
    },
    "Basugaon": {
      "id": 223,
      "Name": "Basugaon",
      "State": "Assam",
      "District": "Chirang",
      "Longitude": "90.4",
      "Latitude": "26.47"
    },
    "Bijni": {
      "id": 224,
      "Name": "Bijni",
      "State": "Assam",
      "District": "Chirang",
      "Longitude": "90.6667",
      "Latitude": "26.5167"
    },
    "Chirang district": {
      "id": 225,
      "Name": "Chirang district",
      "State": "Assam",
      "District": "Chirang",
      "Longitude": "90.61",
      "Latitude": "26.58"
    },
    "Dalgaon": {
      "id": 226,
      "Name": "Dalgaon",
      "State": "Assam",
      "District": "Darrang",
      "Longitude": "92.20000",
      "Latitude": "26.56667"
    },
    "Dipila": {
      "id": 227,
      "Name": "Dipila",
      "State": "Assam",
      "District": "Darrang",
      "Longitude": "91.8293953",
      "Latitude": "26.4567577"
    },
    "Duni (Assam)": {
      "id": 228,
      "Name": "Duni (Assam)",
      "State": "Assam",
      "District": "Darrang",
      "Longitude": "91.49338",
      "Latitude": "26.27421"
    },
    "Kharupetia": {
      "id": 229,
      "Name": "Kharupetia",
      "State": "Assam",
      "District": "Darrang",
      "Longitude": "92.13",
      "Latitude": "26.52"
    },
    "Khoirabari": {
      "id": 230,
      "Name": "Khoirabari",
      "State": "Assam",
      "District": "Darrang",
      "Longitude": "91.93277",
      "Latitude": "26.59823"
    },
    "Mangaldoi": {
      "id": 231,
      "Name": "Mangaldoi",
      "State": "Assam",
      "District": "Darrang",
      "Longitude": "92.03",
      "Latitude": "26.43"
    },
    "Sipajhar": {
      "id": 232,
      "Name": "Sipajhar",
      "State": "Assam",
      "District": "Darrang",
      "Longitude": "91.8293953",
      "Latitude": "26.4009984"
    },
    "Dhemaji": {
      "id": 233,
      "Name": "Dhemaji",
      "State": "Assam",
      "District": "Dhemaji",
      "Longitude": "94.58",
      "Latitude": "27.48"
    },
    "Jonai Bazar": {
      "id": 234,
      "Name": "Jonai Bazar",
      "State": "Assam",
      "District": "Dhemaji",
      "Longitude": "95.221424",
      "Latitude": "27.832928"
    },
    "Kulajan": {
      "id": 235,
      "Name": "Kulajan",
      "State": "Assam",
      "District": "Dhemaji",
      "Longitude": "77.83639",
      "Latitude": "27.34389"
    },
    "Silapathar": {
      "id": 236,
      "Name": "Silapathar",
      "State": "Assam",
      "District": "Dhemaji",
      "Longitude": "94.72000",
      "Latitude": "27.59528"
    },
    "Agomani": {
      "id": 237,
      "Name": "Agomani",
      "State": "Assam",
      "District": "Dhubri",
      "Longitude": "89.785",
      "Latitude": "26.199"
    },
    "Anand Nagar": {
      "id": 238,
      "Name": "Anand Nagar",
      "State": "Assam",
      "District": "Dhubri",
      "Longitude": "90.220",
      "Latitude": "26.226"
    },
    "Bilasipara": {
      "id": 239,
      "Name": "Bilasipara",
      "State": "Assam",
      "District": "Dhubri",
      "Longitude": "90.23",
      "Latitude": "26.23"
    },
    "Chapar (Dhubri)": {
      "id": 240,
      "Name": "Chapar (Dhubri)",
      "State": "Assam",
      "District": "Dhubri",
      "Longitude": "90.47",
      "Latitude": "26.27"
    },
    "Dhubri": {
      "id": 241,
      "Name": "Dhubri",
      "State": "Assam",
      "District": "Dhubri",
      "Longitude": "90",
      "Latitude": "26.02"
    },
    "Gauripur (India)": {
      "id": 242,
      "Name": "Gauripur (India)",
      "State": "Assam",
      "District": "Dhubri",
      "Longitude": "89.97",
      "Latitude": "26.08"
    },
    "Golokganj": {
      "id": 243,
      "Name": "Golokganj",
      "State": "Assam",
      "District": "Dhubri",
      "Longitude": "89.83",
      "Latitude": "26.10"
    },
    "Sagolia Dhubri Assam": {
      "id": 244,
      "Name": "Sagolia Dhubri Assam",
      "State": "Assam",
      "District": "Dhubri",
      "Longitude": "89.76511",
      "Latitude": "26.31216"
    },
    "Sapatgram": {
      "id": 245,
      "Name": "Sapatgram",
      "State": "Assam",
      "District": "Dhubri",
      "Longitude": "90.13",
      "Latitude": "26.33"
    },
    "Tamarhat": {
      "id": 246,
      "Name": "Tamarhat",
      "State": "Assam",
      "District": "Dhubri",
      "Longitude": "89.8507639",
      "Latitude": "26.3019250"
    },
    "Barbari (AMC Area)": {
      "id": 247,
      "Name": "Barbari (AMC Area)",
      "State": "Assam",
      "District": "Dibrugarh",
      "Longitude": "94.8667",
      "Latitude": "27.4000"
    },
    "Boiragimoth": {
      "id": 248,
      "Name": "Boiragimoth",
      "State": "Assam",
      "District": "Dibrugarh",
      "Longitude": "94.93020",
      "Latitude": "27.47033"
    },
    "Chabua": {
      "id": 249,
      "Name": "Chabua",
      "State": "Assam",
      "District": "Dibrugarh",
      "Longitude": "95.18",
      "Latitude": "27.48"
    },
    "Dinjan": {
      "id": 250,
      "Name": "Dinjan",
      "State": "Assam",
      "District": "Dibrugarh",
      "Longitude": "95.16667",
      "Latitude": "27.50000"
    },
    "Duliajan": {
      "id": 251,
      "Name": "Duliajan",
      "State": "Assam",
      "District": "Dibrugarh",
      "Longitude": "95.3167",
      "Latitude": "27.3667"
    },
    "Duliajan Oil Town": {
      "id": 252,
      "Name": "Duliajan Oil Town",
      "State": "Assam",
      "District": "Dibrugarh",
      "Longitude": "95.31833",
      "Latitude": "27.36167"
    },
    "Moran Town": {
      "id": 253,
      "Name": "Moran Town",
      "State": "Assam",
      "District": "Dibrugarh",
      "Longitude": "94.93",
      "Latitude": "27.18"
    },
    "Naharkatiya": {
      "id": 254,
      "Name": "Naharkatiya",
      "State": "Assam",
      "District": "Dibrugarh",
      "Longitude": "95.33",
      "Latitude": "27.28"
    },
    "Namrup": {
      "id": 255,
      "Name": "Namrup",
      "State": "Assam",
      "District": "Dibrugarh",
      "Longitude": "95.21",
      "Latitude": "27.11"
    },
    "Sarupathar Bengali": {
      "id": 256,
      "Name": "Sarupathar Bengali",
      "State": "Assam",
      "District": "Dibrugarh",
      "Longitude": "95.320",
      "Latitude": "27.335"
    },
    "Sepon (Assam)": {
      "id": 257,
      "Name": "Sepon (Assam)",
      "State": "Assam",
      "District": "Dibrugarh",
      "Longitude": "94.8478",
      "Latitude": "27.11083"
    },
    "Tingkhong": {
      "id": 258,
      "Name": "Tingkhong",
      "State": "Assam",
      "District": "Dibrugarh",
      "Longitude": "95.17",
      "Latitude": "27.23"
    },
    "Diyungbra": {
      "id": 259,
      "Name": "Diyungbra",
      "State": "Assam",
      "District": "Dima Hasao",
      "Longitude": "92.915",
      "Latitude": "25.74"
    },
    "Haflong": {
      "id": 260,
      "Name": "Haflong",
      "State": "Assam",
      "District": "Dima Hasao",
      "Longitude": "93.016",
      "Latitude": "25.169"
    },
    "Mahur (Assam)": {
      "id": 261,
      "Name": "Mahur (Assam)",
      "State": "Assam",
      "District": "Dima Hasao",
      "Longitude": "93.12",
      "Latitude": "25.17"
    },
    "Maibang": {
      "id": 262,
      "Name": "Maibang",
      "State": "Assam",
      "District": "Dima Hasao",
      "Longitude": "93.13944",
      "Latitude": "25.29528"
    },
    "Umrangso": {
      "id": 263,
      "Name": "Umrangso",
      "State": "Assam",
      "District": "Dima Hasao",
      "Longitude": "92.73704",
      "Latitude": "25.51357"
    },
    "Dudhnoi": {
      "id": 264,
      "Name": "Dudhnoi",
      "State": "Assam",
      "District": "Goalpara",
      "Longitude": "90.78194",
      "Latitude": "25.98333"
    },
    "Goalpara": {
      "id": 265,
      "Name": "Goalpara",
      "State": "Assam",
      "District": "Goalpara",
      "Longitude": "90.62",
      "Latitude": "26.17"
    },
    "Kharijapikon": {
      "id": 266,
      "Name": "Kharijapikon",
      "State": "Assam",
      "District": "Goalpara",
      "Longitude": "90.61750",
      "Latitude": "26.03722"
    },
    "Lakhipur (Goalpara)": {
      "id": 267,
      "Name": "Lakhipur (Goalpara)",
      "State": "Assam",
      "District": "Goalpara",
      "Longitude": "90.2939562",
      "Latitude": "26.0318337"
    },
    "Barpathar": {
      "id": 268,
      "Name": "Barpathar",
      "State": "Assam",
      "District": "Golaghat",
      "Longitude": "93.87",
      "Latitude": "26.3"
    },
    "Bokakhat": {
      "id": 269,
      "Name": "Bokakhat",
      "State": "Assam",
      "District": "Golaghat",
      "Longitude": "93.6",
      "Latitude": "26.63"
    },
    "Dergaon": {
      "id": 270,
      "Name": "Dergaon",
      "State": "Assam",
      "District": "Golaghat",
      "Longitude": "93.97",
      "Latitude": "26.7"
    },
    "Garampani": {
      "id": 271,
      "Name": "Garampani",
      "State": "Assam",
      "District": "Golaghat",
      "Longitude": "93.86667",
      "Latitude": "26.40000"
    },
    "Golaghat": {
      "id": 272,
      "Name": "Golaghat",
      "State": "Assam",
      "District": "Golaghat",
      "Longitude": "93.97",
      "Latitude": "26.52"
    },
    "Kohora": {
      "id": 273,
      "Name": "Kohora",
      "State": "Assam",
      "District": "Golaghat",
      "Longitude": "93.6",
      "Latitude": "26.63"
    },
    "Merapani": {
      "id": 274,
      "Name": "Merapani",
      "State": "Assam",
      "District": "Golaghat",
      "Longitude": "94.0842533",
      "Latitude": "26.3224975"
    },
    "Naojan": {
      "id": 275,
      "Name": "Naojan",
      "State": "Assam",
      "District": "Golaghat",
      "Longitude": "93.81667",
      "Latitude": "26.11667"
    },
    "Numaligarh": {
      "id": 276,
      "Name": "Numaligarh",
      "State": "Assam",
      "District": "Golaghat",
      "Longitude": "93.750",
      "Latitude": "26.633"
    },
    "Numaligarh Refinery Township": {
      "id": 277,
      "Name": "Numaligarh Refinery Township",
      "State": "Assam",
      "District": "Golaghat",
      "Longitude": "93.78417",
      "Latitude": "26.57889"
    },
    "Sarupathar": {
      "id": 278,
      "Name": "Sarupathar",
      "State": "Assam",
      "District": "Golaghat",
      "Longitude": "93.866083",
      "Latitude": "26.194053"
    },
    "Algapur": {
      "id": 279,
      "Name": "Algapur",
      "State": "Assam",
      "District": "Hailakandi",
      "Longitude": "92.6872046",
      "Latitude": "24.8668104"
    },
    "Katakhal": {
      "id": 280,
      "Name": "Katakhal",
      "State": "Assam",
      "District": "Hailakandi",
      "Longitude": "92.6143",
      "Latitude": "24.8309"
    },
    "Lala (Assam)": {
      "id": 281,
      "Name": "Lala (Assam)",
      "State": "Assam",
      "District": "Hailakandi",
      "Longitude": "92.6",
      "Latitude": "24.55"
    },
    "Panchgram": {
      "id": 282,
      "Name": "Panchgram",
      "State": "Assam",
      "District": "Hailakandi",
      "Longitude": "92.59611",
      "Latitude": "24.86111"
    },
    "Dabaka": {
      "id": 283,
      "Name": "Dabaka",
      "State": "Assam",
      "District": "Hojai",
      "Longitude": "92.86667",
      "Latitude": "26.11667"
    },
    "Hojai": {
      "id": 284,
      "Name": "Hojai",
      "State": "Assam",
      "District": "Hojai",
      "Longitude": "92.87",
      "Latitude": "26.0"
    },
    "Lanka (town)": {
      "id": 285,
      "Name": "Lanka (town)",
      "State": "Assam",
      "District": "Hojai",
      "Longitude": "92.950",
      "Latitude": "25.917"
    },
    "Lumding": {
      "id": 286,
      "Name": "Lumding",
      "State": "Assam",
      "District": "Hojai",
      "Longitude": "93.17",
      "Latitude": "25.75"
    },
    "Lumding Railway Colony": {
      "id": 287,
      "Name": "Lumding Railway Colony",
      "State": "Assam",
      "District": "Hojai",
      "Longitude": "93.17667",
      "Latitude": "25.75000"
    },
    "Charingia Gaon": {
      "id": 288,
      "Name": "Charingia Gaon",
      "State": "Assam",
      "District": "Jorhat",
      "Longitude": "94.14331",
      "Latitude": "26.72973"
    },
    "Chekonidhara": {
      "id": 289,
      "Name": "Chekonidhara",
      "State": "Assam",
      "District": "Jorhat",
      "Longitude": "94.2556",
      "Latitude": "26.708"
    },
    "Kamalabaria N.C.": {
      "id": 290,
      "Name": "Kamalabaria N.C.",
      "State": "Assam",
      "District": "Jorhat",
      "Longitude": "94.16579",
      "Latitude": "26.94736"
    },
    "Kumar Kaibarta Gaon": {
      "id": 291,
      "Name": "Kumar Kaibarta Gaon",
      "State": "Assam",
      "District": "Jorhat",
      "Longitude": "94.2167",
      "Latitude": "26.75"
    },
    "Mariani (Jorhat)": {
      "id": 292,
      "Name": "Mariani (Jorhat)",
      "State": "Assam",
      "District": "Jorhat",
      "Longitude": "94.33",
      "Latitude": "26.67"
    },
    "Naubaisa Gaon": {
      "id": 293,
      "Name": "Naubaisa Gaon",
      "State": "Assam",
      "District": "Jorhat",
      "Longitude": "94.2167",
      "Latitude": "26.75"
    },
    "Senchoa Gaon": {
      "id": 294,
      "Name": "Senchoa Gaon",
      "State": "Assam",
      "District": "Jorhat",
      "Longitude": "94.1862639",
      "Latitude": "26.7323500"
    },
    "Teok": {
      "id": 295,
      "Name": "Teok",
      "State": "Assam",
      "District": "Jorhat",
      "Longitude": "94.42500",
      "Latitude": "26.84083"
    },
    "Titabor": {
      "id": 296,
      "Name": "Titabor",
      "State": "Assam",
      "District": "Jorhat",
      "Longitude": "94.20",
      "Latitude": "26.60"
    },
    "Agyathuri": {
      "id": 297,
      "Name": "Agyathuri",
      "State": "Assam",
      "District": "Kamrup",
      "Longitude": "91.35",
      "Latitude": "26.30"
    },
    "Amingaon": {
      "id": 298,
      "Name": "Amingaon",
      "State": "Assam",
      "District": "Kamrup",
      "Longitude": "91.66667",
      "Latitude": "26.18333"
    },
    "Baihata": {
      "id": 299,
      "Name": "Baihata",
      "State": "Assam",
      "District": "Kamrup",
      "Longitude": "91.7264",
      "Latitude": "26.3451"
    },
    "Bamun Sualkuchi": {
      "id": 300,
      "Name": "Bamun Sualkuchi",
      "State": "Assam",
      "District": "Kamrup",
      "Longitude": "91.57250",
      "Latitude": "26.16944"
    },
    "Bijoynagar": {
      "id": 301,
      "Name": "Bijoynagar",
      "State": "Assam",
      "District": "Kamrup",
      "Longitude": "91.5059",
      "Latitude": "26.1014"
    },
    "Boko (Kamrup)": {
      "id": 302,
      "Name": "Boko (Kamrup)",
      "State": "Assam",
      "District": "Kamrup",
      "Longitude": "91.23557",
      "Latitude": "25.97777"
    },
    "Bongshar": {
      "id": 303,
      "Name": "Bongshar",
      "State": "Assam",
      "District": "Kamrup",
      "Longitude": "91.5606095",
      "Latitude": "26.1984103"
    },
    "Chandrapur Bagicha": {
      "id": 304,
      "Name": "Chandrapur Bagicha",
      "State": "Assam",
      "District": "Kamrup",
      "Longitude": "91.91944",
      "Latitude": "26.22917"
    },
    "Changsari": {
      "id": 305,
      "Name": "Changsari",
      "State": "Assam",
      "District": "Kamrup",
      "Longitude": "91.7",
      "Latitude": "26.28"
    },
    "Chaygaon": {
      "id": 306,
      "Name": "Chaygaon",
      "State": "Assam",
      "District": "Kamrup",
      "Longitude": "91.3706",
      "Latitude": "26.0553"
    },
    "Dadara (Kamrup)": {
      "id": 307,
      "Name": "Dadara (Kamrup)",
      "State": "Assam",
      "District": "Kamrup",
      "Longitude": "91.63",
      "Latitude": "26.21"
    },
    "Dakhala": {
      "id": 308,
      "Name": "Dakhala",
      "State": "Assam",
      "District": "Kamrup",
      "Longitude": "91.498",
      "Latitude": "26.116"
    },
    "Darkuchi": {
      "id": 309,
      "Name": "Darkuchi",
      "State": "Assam",
      "District": "Kamrup",
      "Longitude": "91.38425",
      "Latitude": "26.4045"
    },
    "Hahara": {
      "id": 310,
      "Name": "Hahara",
      "State": "Assam",
      "District": "Kamrup",
      "Longitude": "88.40827",
      "Latitude": "23.00902"
    },
    "Jalah (town)": {
      "id": 311,
      "Name": "Jalah (town)",
      "State": "Assam",
      "District": "Kamrup",
      "Longitude": "91.20379",
      "Latitude": "26.67719"
    },
    "Jatia": {
      "id": 312,
      "Name": "Jatia",
      "State": "Assam",
      "District": "Kamrup",
      "Longitude": "91.77875",
      "Latitude": "26.144257"
    },
    "Kamalpur (Assam)": {
      "id": 313,
      "Name": "Kamalpur (Assam)",
      "State": "Assam",
      "District": "Kamrup",
      "Longitude": "91.46",
      "Latitude": "26.40"
    },
    "Kochpara": {
      "id": 314,
      "Name": "Kochpara",
      "State": "Assam",
      "District": "Kamrup",
      "Longitude": "91.36417",
      "Latitude": "26.41667"
    },
    "Mirza (Kamrup)": {
      "id": 315,
      "Name": "Mirza (Kamrup)",
      "State": "Assam",
      "District": "Kamrup",
      "Longitude": "91.53194",
      "Latitude": "26.09306"
    },
    "Noonmati": {
      "id": 316,
      "Name": "Noonmati",
      "State": "Assam",
      "District": "Kamrup",
      "Longitude": "91.80",
      "Latitude": "26.18"
    },
    "North Guwahati": {
      "id": 317,
      "Name": "North Guwahati",
      "State": "Assam",
      "District": "Kamrup",
      "Longitude": "91.72",
      "Latitude": "26.18"
    },
    "Palasbari": {
      "id": 318,
      "Name": "Palasbari",
      "State": "Assam",
      "District": "Kamrup",
      "Longitude": "91.5",
      "Latitude": "26.13"
    },
    "Rampur (Kamrup)": {
      "id": 319,
      "Name": "Rampur (Kamrup)",
      "State": "Assam",
      "District": "Kamrup",
      "Longitude": "91.26",
      "Latitude": "26.28"
    },
    "Rangiya": {
      "id": 320,
      "Name": "Rangiya",
      "State": "Assam",
      "District": "Kamrup",
      "Longitude": "91.63",
      "Latitude": "26.47"
    },
    "Saraighat": {
      "id": 321,
      "Name": "Saraighat",
      "State": "Assam",
      "District": "Kamrup",
      "Longitude": "91.67222",
      "Latitude": "26.17583"
    },
    "Sualkuchi": {
      "id": 322,
      "Name": "Sualkuchi",
      "State": "Assam",
      "District": "Kamrup",
      "Longitude": "91.57",
      "Latitude": "26.17"
    },
    "Chandrapur (Guwahati)": {
      "id": 323,
      "Name": "Chandrapur (Guwahati)",
      "State": "Assam",
      "District": "Kamrup Metropolitan",
      "Longitude": "91.83202",
      "Latitude": "26.18029"
    },
    "Dharapur": {
      "id": 324,
      "Name": "Dharapur",
      "State": "Assam",
      "District": "Kamrup Metropolitan",
      "Longitude": "91.62778",
      "Latitude": "26.13722"
    },
    "Dispur": {
      "id": 325,
      "Name": "Dispur",
      "State": "Assam",
      "District": "Kamrup Metropolitan",
      "Longitude": "91.98611",
      "Latitude": "26.23583"
    },
    "Guwahati": {
      "id": 326,
      "Name": "Guwahati",
      "State": "Assam",
      "District": "Kamrup Metropolitan",
      "Longitude": "91.74583",
      "Latitude": "26.17222"
    },
    "Amlakhi": {
      "id": 327,
      "Name": "Amlakhi",
      "State": "Assam",
      "District": "Karbi Anglong",
      "Longitude": "93.50000",
      "Latitude": "25.96667"
    },
    "Baguliaghat": {
      "id": 328,
      "Name": "Baguliaghat",
      "State": "Assam",
      "District": "Karbi Anglong",
      "Longitude": "93.20000",
      "Latitude": "26.08333"
    },
    "Bokajan (town)": {
      "id": 329,
      "Name": "Bokajan (town)",
      "State": "Assam",
      "District": "Karbi Anglong",
      "Longitude": "93.78",
      "Latitude": "26.02"
    },
    "Diphu": {
      "id": 330,
      "Name": "Diphu",
      "State": "Assam",
      "District": "Karbi Anglong",
      "Longitude": "93.43",
      "Latitude": "25.83"
    },
    "Dokmoka": {
      "id": 331,
      "Name": "Dokmoka",
      "State": "Assam",
      "District": "Karbi Anglong",
      "Longitude": "93.050079",
      "Latitude": "26.208102"
    },
    "Howraghat": {
      "id": 332,
      "Name": "Howraghat",
      "State": "Assam",
      "District": "Karbi Anglong",
      "Longitude": "93.13806",
      "Latitude": "26.08722"
    },
    "Tumpung": {
      "id": 333,
      "Name": "Tumpung",
      "State": "Assam",
      "District": "Karbi Anglong",
      "Longitude": "93.15000",
      "Latitude": "26.20000"
    },
    "Badarpur Railway Town": {
      "id": 334,
      "Name": "Badarpur Railway Town",
      "State": "Assam",
      "District": "Karimganj",
      "Longitude": "92.55944",
      "Latitude": "24.86222"
    },
    "Badarpur (Assam)": {
      "id": 335,
      "Name": "Badarpur (Assam)",
      "State": "Assam",
      "District": "Karimganj",
      "Longitude": "92.6",
      "Latitude": "24.9"
    },
    "Karimganj": {
      "id": 336,
      "Name": "Karimganj",
      "State": "Assam",
      "District": "Karimganj",
      "Longitude": "92.35",
      "Latitude": "24.87"
    },
    "Patharkandi": {
      "id": 337,
      "Name": "Patharkandi",
      "State": "Assam",
      "District": "Karimganj",
      "Longitude": "92.32139",
      "Latitude": "24.60861"
    },
    "Ramkrishna Nagar (Karimganj)": {
      "id": 338,
      "Name": "Ramkrishna Nagar (Karimganj)",
      "State": "Assam",
      "District": "Karimganj",
      "Longitude": "92.45597",
      "Latitude": "24.58351"
    },
    "Gossaigaon": {
      "id": 339,
      "Name": "Gossaigaon",
      "State": "Assam",
      "District": "Kokrajhar",
      "Longitude": "89.98417",
      "Latitude": "26.41972"
    },
    "Kokrajhar": {
      "id": 340,
      "Name": "Kokrajhar",
      "State": "Assam",
      "District": "Kokrajhar",
      "Longitude": "90.27",
      "Latitude": "26.4"
    },
    "Salakati": {
      "id": 341,
      "Name": "Salakati",
      "State": "Assam",
      "District": "Kokrajhar",
      "Longitude": "90.362549",
      "Latitude": "26.493313"
    },
    "Banderdewa": {
      "id": 342,
      "Name": "Banderdewa",
      "State": "Assam",
      "District": "Lakhimpur",
      "Longitude": "93.827",
      "Latitude": "27.100"
    },
    "Bihpuria": {
      "id": 343,
      "Name": "Bihpuria",
      "State": "Assam",
      "District": "Lakhimpur",
      "Longitude": "93.90",
      "Latitude": "27.03"
    },
    "Ghilamara": {
      "id": 344,
      "Name": "Ghilamara",
      "State": "Assam",
      "District": "Lakhimpur",
      "Longitude": "94.41",
      "Latitude": "27.31"
    },
    "Narayanpur (Assam)": {
      "id": 345,
      "Name": "Narayanpur (Assam)",
      "State": "Assam",
      "District": "Lakhimpur",
      "Longitude": "93.89694",
      "Latitude": "26.99639"
    },
    "North Lakhimpur": {
      "id": 346,
      "Name": "North Lakhimpur",
      "State": "Assam",
      "District": "Lakhimpur",
      "Longitude": "94.10556",
      "Latitude": "27.24139"
    },
    "Bhuragaon": {
      "id": 347,
      "Name": "Bhuragaon",
      "State": "Assam",
      "District": "Morigaon",
      "Longitude": "92.233782",
      "Latitude": "26.404306"
    },
    "Jagiroad": {
      "id": 348,
      "Name": "Jagiroad",
      "State": "Assam",
      "District": "Morigaon",
      "Longitude": "92.406006",
      "Latitude": "26.207815"
    },
    "Mayong (Assam)": {
      "id": 349,
      "Name": "Mayong (Assam)",
      "State": "Assam",
      "District": "Morigaon",
      "Longitude": "92.0407917",
      "Latitude": "26.2588528"
    },
    "Morigaon": {
      "id": 350,
      "Name": "Morigaon",
      "State": "Assam",
      "District": "Morigaon",
      "Longitude": "92.342405",
      "Latitude": "26.253317"
    },
    "Choto Haibor": {
      "id": 351,
      "Name": "Choto Haibor",
      "State": "Assam",
      "District": "Nagaon",
      "Longitude": "92.69611",
      "Latitude": "26.35472"
    },
    "Dhing": {
      "id": 352,
      "Name": "Dhing",
      "State": "Assam",
      "District": "Nagaon",
      "Longitude": "92.47",
      "Latitude": "26.47"
    },
    "Dimaruguri": {
      "id": 353,
      "Name": "Dimaruguri",
      "State": "Assam",
      "District": "Nagaon",
      "Longitude": "94.2000",
      "Latitude": "26.7833"
    },
    "Kaliabor": {
      "id": 354,
      "Name": "Kaliabor",
      "State": "Assam",
      "District": "Nagaon",
      "Longitude": "92.92847",
      "Latitude": "26.54001"
    },
    "Kampur": {
      "id": 355,
      "Name": "Kampur",
      "State": "Assam",
      "District": "Nagaon",
      "Longitude": "92.63",
      "Latitude": "26.20"
    },
    "Kathiatali": {
      "id": 356,
      "Name": "Kathiatali",
      "State": "Assam",
      "District": "Nagaon",
      "Longitude": "92.73333",
      "Latitude": "26.18333"
    },
    "Kuwarital": {
      "id": 357,
      "Name": "Kuwarital",
      "State": "Assam",
      "District": "Nagaon",
      "Longitude": "88.40827",
      "Latitude": "23.00902"
    },
    "Nagaon": {
      "id": 358,
      "Name": "Nagaon",
      "State": "Assam",
      "District": "Nagaon",
      "Longitude": "92.6795912",
      "Latitude": "26.3503828"
    },
    "Puranigudam": {
      "id": 359,
      "Name": "Puranigudam",
      "State": "Assam",
      "District": "Nagaon",
      "Longitude": "92.800",
      "Latitude": "26.350"
    },
    "Silghat": {
      "id": 360,
      "Name": "Silghat",
      "State": "Assam",
      "District": "Nagaon",
      "Longitude": "92.933",
      "Latitude": "26.617"
    },
    "Nalbari": {
      "id": 361,
      "Name": "Nalbari",
      "State": "Assam",
      "District": "Nalbari",
      "Longitude": "91.440",
      "Latitude": "26.445"
    },
    "Tihu": {
      "id": 362,
      "Name": "Tihu",
      "State": "Assam",
      "District": "Nalbari",
      "Longitude": "91.2689",
      "Latitude": "26.4749"
    },
    "Amguri": {
      "id": 363,
      "Name": "Amguri",
      "State": "Assam",
      "District": "Sivasagar",
      "Longitude": "94.523",
      "Latitude": "26.810"
    },
    "Borhat": {
      "id": 364,
      "Name": "Borhat",
      "State": "Assam",
      "District": "Sivasagar",
      "Longitude": "92.82759",
      "Latitude": "26.35439"
    },
    "Moranhat": {
      "id": 365,
      "Name": "Moranhat",
      "State": "Assam",
      "District": "Sivasagar",
      "Longitude": "94.922132",
      "Latitude": "27.193361"
    },
    "Nazira": {
      "id": 366,
      "Name": "Nazira",
      "State": "Assam",
      "District": "Sivasagar",
      "Longitude": "94.73",
      "Latitude": "26.92"
    },
    "Simaluguri": {
      "id": 367,
      "Name": "Simaluguri",
      "State": "Assam",
      "District": "Sivasagar",
      "Longitude": "94.46",
      "Latitude": "26.55"
    },
    "Dhekiajuli": {
      "id": 368,
      "Name": "Dhekiajuli",
      "State": "Assam",
      "District": "Sonitpur",
      "Longitude": "92.5",
      "Latitude": "26.7"
    },
    "Jamugurihat": {
      "id": 369,
      "Name": "Jamugurihat",
      "State": "Assam",
      "District": "Sonitpur",
      "Longitude": "92.93",
      "Latitude": "26.73"
    },
    "Kumar Gaon": {
      "id": 370,
      "Name": "Kumar Gaon",
      "State": "Assam",
      "District": "Sonitpur",
      "Longitude": "92.95",
      "Latitude": "26.71"
    },
    "Majgaon": {
      "id": 371,
      "Name": "Majgaon",
      "State": "Assam",
      "District": "Sonitpur",
      "Longitude": "92.079849",
      "Latitude": "26.630043"
    },
    "Rangapara": {
      "id": 372,
      "Name": "Rangapara",
      "State": "Assam",
      "District": "Sonitpur",
      "Longitude": "92.65",
      "Latitude": "26.82"
    },
    "Tezpur": {
      "id": 373,
      "Name": "Tezpur",
      "State": "Assam",
      "District": "Sonitpur",
      "Longitude": "92.8",
      "Latitude": "26.63"
    },
    "Hatsingimari": {
      "id": 374,
      "Name": "Hatsingimari",
      "State": "Assam",
      "District": "South Salmara-Mankachar",
      "Longitude": "89.89858",
      "Latitude": "25.71647"
    },
    "Mankachar": {
      "id": 375,
      "Name": "Mankachar",
      "State": "Assam",
      "District": "South Salmara-Mankachar",
      "Longitude": "89.87",
      "Latitude": "25.53"
    },
    "Bahbari Gaon": {
      "id": 376,
      "Name": "Bahbari Gaon",
      "State": "Assam",
      "District": "Tinsukia",
      "Longitude": "92.96000",
      "Latitude": "26.19750"
    },
    "Borgolai Grant No.11": {
      "id": 377,
      "Name": "Borgolai Grant No.11",
      "State": "Assam",
      "District": "Tinsukia",
      "Longitude": "92.89000",
      "Latitude": "26.19000"
    },
    "Chapakhowa": {
      "id": 378,
      "Name": "Chapakhowa",
      "State": "Assam",
      "District": "Tinsukia",
      "Longitude": "95.766",
      "Latitude": "27.918"
    },
    "Dangari": {
      "id": 379,
      "Name": "Dangari",
      "State": "Assam",
      "District": "Tinsukia",
      "Longitude": "77.517",
      "Latitude": "31.117"
    },
    "Digboi": {
      "id": 380,
      "Name": "Digboi",
      "State": "Assam",
      "District": "Tinsukia",
      "Longitude": "95.63",
      "Latitude": "27.38"
    },
    "Doom Dooma": {
      "id": 381,
      "Name": "Doom Dooma",
      "State": "Assam",
      "District": "Tinsukia",
      "Longitude": "95.57",
      "Latitude": "27.57"
    },
    "Jagun (Assam)": {
      "id": 382,
      "Name": "Jagun (Assam)",
      "State": "Assam",
      "District": "Tinsukia",
      "Longitude": "95.89447",
      "Latitude": "27.3781"
    },
    "Kakopathar": {
      "id": 383,
      "Name": "Kakopathar",
      "State": "Assam",
      "District": "Tinsukia",
      "Longitude": "88.40827",
      "Latitude": "23.00902"
    },
    "Ledo (Assam)": {
      "id": 384,
      "Name": "Ledo (Assam)",
      "State": "Assam",
      "District": "Tinsukia",
      "Longitude": "95.73333",
      "Latitude": "27.30000"
    },
    "Lido Tikok": {
      "id": 385,
      "Name": "Lido Tikok",
      "State": "Assam",
      "District": "Tinsukia",
      "Longitude": "95.3667",
      "Latitude": "27.5000"
    },
    "Lido Town": {
      "id": 386,
      "Name": "Lido Town",
      "State": "Assam",
      "District": "Tinsukia",
      "Longitude": "95.3667",
      "Latitude": "27.5000"
    },
    "Makum": {
      "id": 387,
      "Name": "Makum",
      "State": "Assam",
      "District": "Tinsukia",
      "Longitude": "95.45",
      "Latitude": "27.5"
    },
    "Margherita (Assam)": {
      "id": 388,
      "Name": "Margherita (Assam)",
      "State": "Assam",
      "District": "Tinsukia",
      "Longitude": "95.68",
      "Latitude": "27.28"
    },
    "Sadiya": {
      "id": 389,
      "Name": "Sadiya",
      "State": "Assam",
      "District": "Tinsukia",
      "Longitude": "95.67",
      "Latitude": "27.83"
    },
    "Sripuria (Tinsukia)": {
      "id": 390,
      "Name": "Sripuria (Tinsukia)",
      "State": "Assam",
      "District": "Tinsukia",
      "Longitude": "95.34669",
      "Latitude": "27.47891"
    },
    "Tipong (Assam)": {
      "id": 391,
      "Name": "Tipong (Assam)",
      "State": "Assam",
      "District": "Tinsukia",
      "Longitude": "95.850",
      "Latitude": "27.300"
    },
    "Tirap Gaon (Ledo)": {
      "id": 392,
      "Name": "Tirap Gaon (Ledo)",
      "State": "Assam",
      "District": "Tinsukia",
      "Longitude": "95.81667",
      "Latitude": "27.31667"
    },
    "Odalguri": {
      "id": 393,
      "Name": "Odalguri",
      "State": "Assam",
      "District": "Udalguri",
      "Longitude": "92.0962",
      "Latitude": "26.7452"
    },
    "Harisinga": {
      "id": 394,
      "Name": "Harisinga",
      "State": "Assam",
      "District": "Udalguri",
      "Longitude": "91.5910",
      "Latitude": "26.43308"
    },
    "Kalaigaon": {
      "id": 395,
      "Name": "Kalaigaon",
      "State": "Assam",
      "District": "Udalguri",
      "Longitude": "91.97567",
      "Latitude": "26.57459"
    },
    "Tangla": {
      "id": 396,
      "Name": "Tangla",
      "State": "Assam",
      "District": "Udalguri",
      "Longitude": "91.912479",
      "Latitude": "26.657086"
    },
    "Dongkamukam": {
      "id": 397,
      "Name": "Dongkamukam",
      "State": "Assam",
      "District": "West Karbi Anglong",
      "Longitude": "92.70141361",
      "Latitude": "25.93280694"
    },
    "Hamren": {
      "id": 398,
      "Name": "Hamren",
      "State": "Assam",
      "District": "West Karbi Anglong",
      "Longitude": "92.608300",
      "Latitude": "25.923300"
    }
  },
  "Bihar": {
    "Ajitnagar": {
      "id": 399,
      "Name": "Ajitnagar",
      "State": "Bihar",
      "District": "Araria",
      "Longitude": "87.1059586",
      "Latitude": "26.2392425"
    },
    "Forbesganj": {
      "id": 400,
      "Name": "Forbesganj",
      "State": "Bihar",
      "District": "Araria",
      "Longitude": "87.265",
      "Latitude": "26.300"
    },
    "Jogbani": {
      "id": 401,
      "Name": "Jogbani",
      "State": "Bihar",
      "District": "Araria",
      "Longitude": "87.25972",
      "Latitude": "26.39611"
    },
    "Narpatganj": {
      "id": 402,
      "Name": "Narpatganj",
      "State": "Bihar",
      "District": "Araria",
      "Longitude": "87.10000",
      "Latitude": "26.33333"
    },
    "Palasi": {
      "id": 403,
      "Name": "Palasi",
      "State": "Bihar",
      "District": "Araria",
      "Longitude": "87.567",
      "Latitude": "26.233"
    },
    "Kaler (Bihar)": {
      "id": 404,
      "Name": "Kaler (Bihar)",
      "State": "Bihar",
      "District": "Arwal",
      "Longitude": "84.49857",
      "Latitude": "25.12151"
    },
    "Bhalu Khaira": {
      "id": 405,
      "Name": "Bhalu Khaira",
      "State": "Bihar",
      "District": "Aurangabad (Bihar)",
      "Longitude": "84.65",
      "Latitude": "24.82"
    },
    "Daudnagar": {
      "id": 406,
      "Name": "Daudnagar",
      "State": "Bihar",
      "District": "Aurangabad (Bihar)",
      "Longitude": "84.4",
      "Latitude": "25.03"
    },
    "Deo (Bihar)": {
      "id": 407,
      "Name": "Deo (Bihar)",
      "State": "Bihar",
      "District": "Aurangabad (Bihar)",
      "Longitude": "84.4206645",
      "Latitude": "24.6582687"
    },
    "Haspura (Aurangabad)": {
      "id": 408,
      "Name": "Haspura (Aurangabad)",
      "State": "Bihar",
      "District": "Aurangabad (Bihar)",
      "Longitude": "84.854",
      "Latitude": "24.839"
    },
    "Jamhore": {
      "id": 409,
      "Name": "Jamhore",
      "State": "Bihar",
      "District": "Aurangabad (Bihar)",
      "Longitude": "84.32113",
      "Latitude": "24.84696"
    },
    "Nabinagar": {
      "id": 410,
      "Name": "Nabinagar",
      "State": "Bihar",
      "District": "Aurangabad (Bihar)",
      "Longitude": "84.12",
      "Latitude": "24.62"
    },
    "Obra (Bihar)": {
      "id": 411,
      "Name": "Obra (Bihar)",
      "State": "Bihar",
      "District": "Aurangabad (Bihar)",
      "Longitude": "84.34",
      "Latitude": "24.87"
    },
    "Rafiganj": {
      "id": 412,
      "Name": "Rafiganj",
      "State": "Bihar",
      "District": "Aurangabad (Bihar)",
      "Longitude": "84.65",
      "Latitude": "24.82"
    },
    "Amarpur (Banka)": {
      "id": 413,
      "Name": "Amarpur (Banka)",
      "State": "Bihar",
      "District": "Banka",
      "Longitude": "86.9",
      "Latitude": "25.03"
    },
    "Banka (Bihar)": {
      "id": 414,
      "Name": "Banka (Bihar)",
      "State": "Bihar",
      "District": "Banka",
      "Longitude": "86.92",
      "Latitude": "24.88"
    },
    "Kharhara": {
      "id": 415,
      "Name": "Kharhara",
      "State": "Bihar",
      "District": "Banka",
      "Longitude": "86.92",
      "Latitude": "24.88"
    },
    "Barauni": {
      "id": 416,
      "Name": "Barauni",
      "State": "Bihar",
      "District": "Begusarai",
      "Longitude": "85.987",
      "Latitude": "25.466"
    },
    "Barauni IOC Township": {
      "id": 417,
      "Name": "Barauni IOC Township",
      "State": "Bihar",
      "District": "Begusarai",
      "Longitude": "86.09343",
      "Latitude": "25.41909"
    },
    "Begusarai": {
      "id": 418,
      "Name": "Begusarai",
      "State": "Bihar",
      "District": "Begusarai",
      "Longitude": "86.13",
      "Latitude": "25.42"
    },
    "Mansurchak": {
      "id": 419,
      "Name": "Mansurchak",
      "State": "Bihar",
      "District": "Begusarai",
      "Longitude": "85.9215",
      "Latitude": "25.6253"
    },
    "Nayatol": {
      "id": 420,
      "Name": "Nayatol",
      "State": "Bihar",
      "District": "Begusarai",
      "Longitude": "85.947060",
      "Latitude": "25.608349"
    },
    "Simaria": {
      "id": 421,
      "Name": "Simaria",
      "State": "Bihar",
      "District": "Begusarai",
      "Longitude": "85.60967",
      "Latitude": "25.67985"
    },
    "Urvarak Nagar Barauni": {
      "id": 422,
      "Name": "Urvarak Nagar Barauni",
      "State": "Bihar",
      "District": "Begusarai",
      "Longitude": "86.033",
      "Latitude": "25.44623"
    },
    "Bhagalpur": {
      "id": 423,
      "Name": "Bhagalpur",
      "State": "Bihar",
      "District": "Bhagalpur",
      "Longitude": "87.000",
      "Latitude": "25.250"
    },
    "Bihpur": {
      "id": 424,
      "Name": "Bihpur",
      "State": "Bihar",
      "District": "Bhagalpur",
      "Longitude": "86.93333",
      "Latitude": "25.38333"
    },
    "Dhrubganj": {
      "id": 425,
      "Name": "Dhrubganj",
      "State": "Bihar",
      "District": "Bhagalpur",
      "Longitude": "87.017",
      "Latitude": "25.367"
    },
    "Ghoga": {
      "id": 426,
      "Name": "Ghoga",
      "State": "Bihar",
      "District": "Bhagalpur",
      "Longitude": "87.167",
      "Latitude": "25.217"
    },
    "Habibpur": {
      "id": 427,
      "Name": "Habibpur",
      "State": "Bihar",
      "District": "Bhagalpur",
      "Longitude": "86.9832",
      "Latitude": "25.21217"
    },
    "Kahalgaon": {
      "id": 428,
      "Name": "Kahalgaon",
      "State": "Bihar",
      "District": "Bhagalpur",
      "Longitude": "87.22",
      "Latitude": "25.27"
    },
    "Khajuria (Bihar)": {
      "id": 429,
      "Name": "Khajuria (Bihar)",
      "State": "Bihar",
      "District": "Bhagalpur",
      "Longitude": "84.6208",
      "Latitude": "26.3750"
    },
    "Khanpurmal": {
      "id": 430,
      "Name": "Khanpurmal",
      "State": "Bihar",
      "District": "Bhagalpur",
      "Longitude": "86.76278",
      "Latitude": "25.17111"
    },
    "Naugachia": {
      "id": 431,
      "Name": "Naugachia",
      "State": "Bihar",
      "District": "Bhagalpur",
      "Longitude": "87.1",
      "Latitude": "25.4"
    },
    "Pirpainti": {
      "id": 432,
      "Name": "Pirpainti",
      "State": "Bihar",
      "District": "Bhagalpur",
      "Longitude": "87.4212384",
      "Latitude": "25.2909954"
    },
    "Sultanganj": {
      "id": 433,
      "Name": "Sultanganj",
      "State": "Bihar",
      "District": "Bhagalpur",
      "Longitude": "86.738",
      "Latitude": "25.246"
    },
    "Arrah": {
      "id": 434,
      "Name": "Arrah",
      "State": "Bihar",
      "District": "Bhojpur",
      "Longitude": "84.67000",
      "Latitude": "25.55750"
    },
    "Bihiya": {
      "id": 435,
      "Name": "Bihiya",
      "State": "Bihar",
      "District": "Bhojpur",
      "Longitude": "84.45935",
      "Latitude": "25.5607"
    },
    "Jagdishpur": {
      "id": 436,
      "Name": "Jagdishpur",
      "State": "Bihar",
      "District": "Bhojpur",
      "Longitude": "84.417",
      "Latitude": "25.467"
    },
    "Kakila": {
      "id": 437,
      "Name": "Kakila",
      "State": "Bihar",
      "District": "Bhojpur",
      "Longitude": "84.45219",
      "Latitude": "25.4181"
    },
    "Koilwar": {
      "id": 438,
      "Name": "Koilwar",
      "State": "Bihar",
      "District": "Bhojpur",
      "Longitude": "84.80",
      "Latitude": "25.58"
    },
    "Lahang Dumariya": {
      "id": 439,
      "Name": "Lahang Dumariya",
      "State": "Bihar",
      "District": "Bhojpur",
      "Longitude": "84.50444",
      "Latitude": "25.61167"
    },
    "Piro (Bhojpur)": {
      "id": 440,
      "Name": "Piro (Bhojpur)",
      "State": "Bihar",
      "District": "Bhojpur",
      "Longitude": "84.42",
      "Latitude": "25.33"
    },
    "Shahpur (Bihar)": {
      "id": 441,
      "Name": "Shahpur (Bihar)",
      "State": "Bihar",
      "District": "Bhojpur",
      "Longitude": "84.4",
      "Latitude": "25.6"
    },
    "Brahmapur (Bihar)": {
      "id": 442,
      "Name": "Brahmapur (Bihar)",
      "State": "Bihar",
      "District": "Buxar",
      "Longitude": "84.18",
      "Latitude": "25.35"
    },
    "Buxar": {
      "id": 443,
      "Name": "Buxar",
      "State": "Bihar",
      "District": "Buxar",
      "Longitude": "83.98054",
      "Latitude": "25.56049"
    },
    "Chausa": {
      "id": 444,
      "Name": "Chausa",
      "State": "Bihar",
      "District": "Buxar",
      "Longitude": "83.8823147",
      "Latitude": "25.5075447"
    },
    "Dumraon": {
      "id": 445,
      "Name": "Dumraon",
      "State": "Bihar",
      "District": "Buxar",
      "Longitude": "84.15",
      "Latitude": "25.55"
    },
    "Raghunathpur (Buxar)": {
      "id": 446,
      "Name": "Raghunathpur (Buxar)",
      "State": "Bihar",
      "District": "Buxar",
      "Longitude": "84.19",
      "Latitude": "25.33"
    },
    "Darbhanga": {
      "id": 447,
      "Name": "Darbhanga",
      "State": "Bihar",
      "District": "Darbhanga",
      "Longitude": "85.9",
      "Latitude": "26.17"
    },
    "Jalley": {
      "id": 448,
      "Name": "Jalley",
      "State": "Bihar",
      "District": "Darbhanga",
      "Longitude": "85.72000",
      "Latitude": "26.38000"
    },
    "Laheriasarai": {
      "id": 449,
      "Name": "Laheriasarai",
      "State": "Bihar",
      "District": "Darbhanga",
      "Longitude": "85.90045",
      "Latitude": "26.12318"
    },
    "Simri": {
      "id": 450,
      "Name": "Simri",
      "State": "Bihar",
      "District": "Darbhanga",
      "Longitude": "84.11553",
      "Latitude": "25.64186"
    },
    "Areraj": {
      "id": 451,
      "Name": "Areraj",
      "State": "Bihar",
      "District": "East Champaran",
      "Longitude": "84.68013",
      "Latitude": "26.55031"
    },
    "Chakia (Bihar)": {
      "id": 452,
      "Name": "Chakia (Bihar)",
      "State": "Bihar",
      "District": "East Champaran",
      "Longitude": "85.05",
      "Latitude": "26.42"
    },
    "Dhaka (East Champaran)": {
      "id": 453,
      "Name": "Dhaka (East Champaran)",
      "State": "Bihar",
      "District": "East Champaran",
      "Longitude": "85.17",
      "Latitude": "26.68"
    },
    "Harsidhi": {
      "id": 454,
      "Name": "Harsidhi",
      "State": "Bihar",
      "District": "East Champaran",
      "Longitude": "84.71",
      "Latitude": "26.66"
    },
    "Lauthaha": {
      "id": 455,
      "Name": "Lauthaha",
      "State": "Bihar",
      "District": "East Champaran",
      "Longitude": "84.90964",
      "Latitude": "26.62961"
    },
    "Mehsi": {
      "id": 456,
      "Name": "Mehsi",
      "State": "Bihar",
      "District": "East Champaran",
      "Longitude": "85.11",
      "Latitude": "26.35"
    },
    "Motihari": {
      "id": 457,
      "Name": "Motihari",
      "State": "Bihar",
      "District": "East Champaran",
      "Longitude": "84.91667",
      "Latitude": "26.65000"
    },
    "Raxaul": {
      "id": 458,
      "Name": "Raxaul",
      "State": "Bihar",
      "District": "East Champaran",
      "Longitude": "84.8500",
      "Latitude": "26.9833"
    },
    "Sugauli": {
      "id": 459,
      "Name": "Sugauli",
      "State": "Bihar",
      "District": "East Champaran",
      "Longitude": "84.733",
      "Latitude": "26.783"
    },
    "Bakraur": {
      "id": 460,
      "Name": "Bakraur",
      "State": "Bihar",
      "District": "Gaya",
      "Longitude": "85.0034624",
      "Latitude": "24.6979734"
    },
    "Barachatti": {
      "id": 461,
      "Name": "Barachatti",
      "State": "Bihar",
      "District": "Gaya",
      "Longitude": "85.01667",
      "Latitude": "24.51667"
    },
    "Bela (Bihar)": {
      "id": 462,
      "Name": "Bela (Bihar)",
      "State": "Bihar",
      "District": "Gaya",
      "Longitude": "84.96667",
      "Latitude": "24.96667"
    },
    "Bodh Gaya": {
      "id": 463,
      "Name": "Bodh Gaya",
      "State": "Bihar",
      "District": "Gaya",
      "Longitude": "84.991275",
      "Latitude": "24.695102"
    },
    "Dobhi": {
      "id": 464,
      "Name": "Dobhi",
      "State": "Bihar",
      "District": "Gaya",
      "Longitude": "84.91",
      "Latitude": "24.53"
    },
    "Dumaria (Gaya district)": {
      "id": 465,
      "Name": "Dumaria (Gaya district)",
      "State": "Bihar",
      "District": "Gaya",
      "Longitude": "84.584727",
      "Latitude": "24.452521"
    },
    "Gola Bazar (Bihar)": {
      "id": 466,
      "Name": "Gola Bazar (Bihar)",
      "State": "Bihar",
      "District": "Gaya",
      "Longitude": "84.791533",
      "Latitude": "24.558677"
    },
    "Imamganj": {
      "id": 467,
      "Name": "Imamganj",
      "State": "Bihar",
      "District": "Gaya",
      "Longitude": "84.584727",
      "Latitude": "24.452521"
    },
    "Manpur (Bihar)": {
      "id": 468,
      "Name": "Manpur (Bihar)",
      "State": "Bihar",
      "District": "Gaya",
      "Longitude": "85.03",
      "Latitude": "24.82"
    },
    "Paharpur (India)": {
      "id": 469,
      "Name": "Paharpur (India)",
      "State": "Bihar",
      "District": "Gaya",
      "Longitude": "85.207943",
      "Latitude": "24.607106"
    },
    "Sahdeokhap": {
      "id": 470,
      "Name": "Sahdeokhap",
      "State": "Bihar",
      "District": "Gaya",
      "Longitude": "85.13",
      "Latitude": "25.37"
    },
    "Salempur (Gaya)": {
      "id": 471,
      "Name": "Salempur (Gaya)",
      "State": "Bihar",
      "District": "Gaya",
      "Longitude": "85.25",
      "Latitude": "24.66"
    },
    "Sherghati": {
      "id": 472,
      "Name": "Sherghati",
      "State": "Bihar",
      "District": "Gaya",
      "Longitude": "84.78",
      "Latitude": "24.57"
    },
    "Tekari": {
      "id": 473,
      "Name": "Tekari",
      "State": "Bihar",
      "District": "Gaya",
      "Longitude": "84.83",
      "Latitude": "24.93"
    },
    "Barauli (Bihar)": {
      "id": 474,
      "Name": "Barauli (Bihar)",
      "State": "Bihar",
      "District": "Gopalganj",
      "Longitude": "84.58",
      "Latitude": "26.4"
    },
    "Dighwa Dubauli": {
      "id": 475,
      "Name": "Dighwa Dubauli",
      "State": "Bihar",
      "District": "Gopalganj",
      "Longitude": "84.36399",
      "Latitude": "24.74719"
    },
    "Gopalganj (Bihar)": {
      "id": 476,
      "Name": "Gopalganj (Bihar)",
      "State": "Bihar",
      "District": "Gopalganj",
      "Longitude": "84.43",
      "Latitude": "26.47"
    },
    "Kataiya (India)": {
      "id": 477,
      "Name": "Kataiya (India)",
      "State": "Bihar",
      "District": "Gopalganj",
      "Longitude": "84.09255",
      "Latitude": "26.56952"
    },
    "Mirganj (Bihar)": {
      "id": 478,
      "Name": "Mirganj (Bihar)",
      "State": "Bihar",
      "District": "Gopalganj",
      "Longitude": "84.34738",
      "Latitude": "26.36764"
    },
    "Gidhaur": {
      "id": 479,
      "Name": "Gidhaur",
      "State": "Bihar",
      "District": "Jamui",
      "Longitude": "86.300369",
      "Latitude": "24.857941"
    },
    "Jamui": {
      "id": 480,
      "Name": "Jamui",
      "State": "Bihar",
      "District": "Jamui",
      "Longitude": "86.22",
      "Latitude": "24.92"
    },
    "Jhajha": {
      "id": 481,
      "Name": "Jhajha",
      "State": "Bihar",
      "District": "Jamui",
      "Longitude": "86.376",
      "Latitude": "24.767"
    },
    "Jehanabad": {
      "id": 482,
      "Name": "Jehanabad",
      "State": "Bihar",
      "District": "Jehanabad",
      "Longitude": "84.983",
      "Latitude": "25.217"
    },
    "Makhdumpur": {
      "id": 483,
      "Name": "Makhdumpur",
      "State": "Bihar",
      "District": "Jehanabad",
      "Longitude": "84.973",
      "Latitude": "25.072"
    },
    "Akhini (Dildarnagar)": {
      "id": 484,
      "Name": "Akhini (Dildarnagar)",
      "State": "Bihar",
      "District": "Kaimur",
      "Longitude": "83.70",
      "Latitude": "25.38"
    },
    "Bhabua": {
      "id": 485,
      "Name": "Bhabua",
      "State": "Bihar",
      "District": "Kaimur",
      "Longitude": "83.62",
      "Latitude": "25.05"
    },
    "Durgawati": {
      "id": 486,
      "Name": "Durgawati",
      "State": "Bihar",
      "District": "Kaimur",
      "Longitude": "83.53083",
      "Latitude": "25.21139"
    },
    "Kudra": {
      "id": 487,
      "Name": "Kudra",
      "State": "Bihar",
      "District": "Kaimur",
      "Longitude": "83.62",
      "Latitude": "25.05"
    },
    "Mohania": {
      "id": 488,
      "Name": "Mohania",
      "State": "Bihar",
      "District": "Kaimur",
      "Longitude": "83.61889",
      "Latitude": "25.16778"
    },
    "Ramgarh (Kaimur)": {
      "id": 489,
      "Name": "Ramgarh (Kaimur)",
      "State": "Bihar",
      "District": "Kaimur",
      "Longitude": "83.65355",
      "Latitude": "25.28893"
    },
    "Barsoi": {
      "id": 490,
      "Name": "Barsoi",
      "State": "Bihar",
      "District": "Katihar",
      "Longitude": "87.92250",
      "Latitude": "25.65139"
    },
    "Katihar": {
      "id": 491,
      "Name": "Katihar",
      "State": "Bihar",
      "District": "Katihar",
      "Longitude": "87.58",
      "Latitude": "25.53"
    },
    "Korha (Katihar)": {
      "id": 492,
      "Name": "Korha (Katihar)",
      "State": "Bihar",
      "District": "Katihar",
      "Longitude": "87.3995",
      "Latitude": "25.6210"
    },
    "Kursela": {
      "id": 493,
      "Name": "Kursela",
      "State": "Bihar",
      "District": "Katihar",
      "Longitude": "87.25413",
      "Latitude": "25.45151"
    },
    "Manihari": {
      "id": 494,
      "Name": "Manihari",
      "State": "Bihar",
      "District": "Katihar",
      "Longitude": "87.63",
      "Latitude": "25.35"
    },
    "Tingachhia": {
      "id": 495,
      "Name": "Tingachhia",
      "State": "Bihar",
      "District": "Katihar",
      "Longitude": "87.577",
      "Latitude": "25.528"
    },
    "Gogri Jamalpur": {
      "id": 496,
      "Name": "Gogri Jamalpur",
      "State": "Bihar",
      "District": "Khagaria",
      "Longitude": "86.64135",
      "Latitude": "25.4124"
    },
    "Khagaria": {
      "id": 497,
      "Name": "Khagaria",
      "State": "Bihar",
      "District": "Khagaria",
      "Longitude": "86.47417",
      "Latitude": "25.50833"
    },
    "Bahadurganj (Kishanganj)": {
      "id": 498,
      "Name": "Bahadurganj (Kishanganj)",
      "State": "Bihar",
      "District": "Kishanganj",
      "Longitude": "87.82",
      "Latitude": "26.27"
    },
    "Kishanganj": {
      "id": 499,
      "Name": "Kishanganj",
      "State": "Bihar",
      "District": "Kishanganj",
      "Longitude": "87.93722",
      "Latitude": "26.07944"
    },
    "Thakurganj": {
      "id": 500,
      "Name": "Thakurganj",
      "State": "Bihar",
      "District": "Kishanganj",
      "Longitude": "88.13",
      "Latitude": "26.45"
    },
    "Barahiya": {
      "id": 501,
      "Name": "Barahiya",
      "State": "Bihar",
      "District": "Lakhisarai",
      "Longitude": "86.0333",
      "Latitude": "25.2833"
    },
    "Jaitpur": {
      "id": 502,
      "Name": "Jaitpur",
      "State": "Bihar",
      "District": "Lakhisarai",
      "Longitude": "86.0262",
      "Latitude": "25.2608"
    },